ts_ms,speed_kmh,rpm,voltage_V,vcell_V,curr_in_A,curr_mot_A,power_W,duty_pct,temp_fet_C,temp_mot_C,temp_bat_C,pitch_deg,roll_deg,setpoint_deg,atr_deg,torquetilt_deg,turntilt_deg,adc1,adc2,booster_A,foc_id_A,state,amp_hours,tacho,id_A,iq_A,watt_hours,wh_charged,ah_charged,tacho_abs,fault,batt_pct,odo_km,batt_wh,yaw,acc_x,acc_y,acc_z,gyro_x,gyro_y,gyro_z,bms_v_tot,bms_i_in,cell_min,cell_max,cell_delta_mV,cell_01,cell_02,cell_03,cell_04,cell_05,cell_06,cell_07,cell_08,cell_09,cell_10,cell_11,cell_12,cell_13,cell_14,cell_15,cell_16,cell_17,cell_18,cell_19,cell_20,bms_temp_01,bms_temp_02,bms_temp_03,bms_temp_04,bms_temp_05,bms_temp_06
0,0,0,81.68,4.084,2.86,4.86,233,-1.4,32.0,30.0,27.0,0.04,0.0,0.02,0.02,0.0,0.0,0.05,0.04,0.0,0.3,0,0.0001,1284000,0.19,4.37,0.0054,0,0,1284000,0,96.0,128.4,1440,0.0,-0.081,0.123,1.0,0.0,25.0,0.0,81.68,2.86,4.072,4.099,28,4.074,4.074,4.083,4.095,4.075,4.078,4.089,4.098,4.088,4.083,4.099,4.073,4.095,4.08,4.076,4.075,4.08,4.094,4.077,4.088,27.3,26.7,,,,
83,0,0,81.75,4.087,2.27,3.86,185,-0.6,32.1,30.1,27.0,0.74,0.12,0.41,0.28,0.05,0.02,0.05,0.04,0.8,0.3,0,0.0001,1284000,-0.18,3.47,0.0097,0,0,1284000,0,96.0,128.4,1440,0.7,-0.013,0.328,1.081,12.1,23.63,3.7,81.75,2.27,4.072,4.107,35,4.097,4.081,4.092,4.091,4.103,4.098,4.082,4.106,4.076,4.087,4.099,4.078,4.089,4.074,4.095,4.099,4.092,4.103,4.083,4.096,27.2,27.2,,,,
166,1.54,1908,80.87,4.044,10.13,17.22,819,8.0,32.2,30.1,27.0,1.1,0.23,0.61,0.42,0.11,0.03,0.82,0.79,1.2,0.3,0,0.0004,1284000,1.83,15.49,0.0285,0,0,1284000,0,96.0,128.4,1440,1.3,0.312,0.333,1.154,22.14,19.69,7.17,80.87,10.13,4.024,4.057,34,4.036,4.046,4.024,4.039,4.029,4.027,4.026,4.049,4.028,4.032,4.037,4.053,4.026,4.039,4.042,4.053,4.051,4.053,4.033,4.037,26.7,27.8,,,,
249,0.25,308,80.98,4.049,9.19,15.62,744,2.6,32.3,30.2,27.0,2.37,0.35,1.3,0.91,0.16,0.05,0.05,0.04,2.6,0.3,0,0.0006,1284000,-1.39,14.06,0.0457,0,0,1284000,0,96.0,128.4,1440,2.0,0.325,0.149,3.01,28.42,13.59,10.19,80.98,9.19,4.033,4.063,31,4.05,4.062,4.054,4.049,4.052,4.053,4.034,4.06,4.057,4.06,4.057,4.045,4.045,4.036,4.052,4.035,4.035,4.039,4.038,4.043,26.1,26.0,,,,
332,0.49,613,80.85,4.042,10.37,17.63,838,5.0,32.4,30.2,27.0,3.22,0.46,1.77,1.24,0.21,0.07,0.05,0.04,3.5,0.3,0,0.0008,1284000,-1.33,15.86,0.065,0,0,1284000,0,96.0,128.4,1440,2.7,0.125,0.103,1.243,29.88,6.01,12.59,80.85,10.37,4.027,4.054,27,4.05,4.054,4.039,4.04,4.029,4.03,4.036,4.034,4.049,4.031,4.027,4.053,4.041,4.031,4.041,4.027,4.041,4.053,4.05,4.046,26.5,26.7,,,,
415,2.47,3063,79.54,3.977,22.16,37.67,1762,11.7,32.5,30.3,27.0,3.36,0.57,1.85,1.29,0.26,0.08,0.82,0.79,3.7,0.3,1,0.0013,1284001,-0.08,33.9,0.1057,0,0,1284001,0,96.0,128.4,1440,3.3,0.566,0.346,1.249,26.27,-2.23,14.21,79.54,22.16,3.957,3.997,40,3.986,3.966,3.977,3.971,3.958,3.958,3.968,3.967,3.984,3.995,3.975,3.994,3.996,3.995,3.971,3.966,3.966,3.965,3.965,3.982,27.8,27.7,,,,
498,2.55,3165,80.03,4.001,17.73,30.15,1419,13.8,32.7,30.4,27.0,4.69,0.68,2.58,1.8,0.31,0.1,0.82,0.79,5.2,0.3,1,0.0017,1284001,0.11,27.13,0.1384,0,0,1284001,0,96.0,128.4,1440,4.0,0.568,0.196,1.228,18.19,-10.22,14.96,80.03,17.73,3.988,4.021,33,3.999,4.014,4.02,4.001,4.001,4.019,4.012,3.993,3.992,3.993,4.018,4.015,3.993,4.015,4.02,4.01,3.999,4.006,3.992,3.988,27.9,27.3,,,,
581,3.6,4459,78.96,3.948,27.39,46.56,2162,15.8,32.9,30.4,27.0,4.24,0.79,2.33,1.63,0.36,0.11,0.82,0.79,4.7,0.3,1,0.0024,1284002,0.07,41.9,0.1882,0,0,1284002,0,96.0,128.4,1440,4.6,0.245,-0.047,1.182,7.03,-17.1,14.78,78.96,27.39,3.93,3.961,31,3.943,3.934,3.958,3.941,3.944,3.948,3.958,3.943,3.958,3.946,3.946,3.946,3.931,3.944,3.936,3.93,3.955,3.935,3.945,3.952,27.1,26.6,,,,
664,3.06,3794,79.75,3.988,20.22,34.38,1613,16.3,33.0,30.5,27.0,4.55,0.9,2.5,1.75,0.4,0.13,0.82,0.79,5.0,0.3,1,0.0028,1284003,-1.71,30.94,0.2254,0,0,1284003,0,96.0,128.4,1440,5.3,0.231,0.082,1.117,-5.32,-22.11,13.69,79.75,20.22,3.97,4.007,37,4.004,3.986,3.993,3.989,3.989,3.995,3.987,3.99,3.988,4.005,3.996,4.002,4.005,3.98,3.991,4.005,4.001,3.975,3.975,3.986,26.1,26.5,,,,
747,3.71,4595,78.88,3.944,28.07,47.71,2214,18.4,33.1,30.5,27.0,5.24,1.0,2.88,2.02,0.44,0.15,0.82,0.79,5.8,0.3,1,0.0035,1284004,1.89,42.94,0.2765,0,0,1284004,0,96.0,128.4,1440,6.0,0.41,-0.231,1.038,-16.78,-24.71,11.76,78.88,28.07,3.922,3.957,34,3.955,3.936,3.939,3.956,3.951,3.928,3.937,3.94,3.934,3.929,3.933,3.947,3.923,3.941,3.938,3.923,3.934,3.944,3.94,3.925,28.0,27.6,,,,
830,2.72,3378,79.98,3.999,18.15,30.86,1452,14.0,33.2,30.6,27.0,4.7,1.1,2.59,1.81,0.47,0.16,0.82,0.79,5.2,0.3,1,0.0039,1284004,0.11,27.77,0.3099,0,0,1284004,0,96.0,128.4,1440,6.6,0.02,-0.176,0.956,-25.38,-24.6,9.1,79.98,18.15,3.979,4.012,33,3.984,4.01,3.998,4.002,3.982,3.981,4.002,3.993,3.981,4.01,4.0,4.006,3.982,4.007,3.981,4.008,3.994,3.99,3.997,4.01,26.5,26.2,,,,
913,3.42,4242,79.91,3.996,18.78,31.93,1501,15.3,33.3,30.6,27.0,4.48,1.19,2.46,1.72,0.51,0.18,0.82,0.79,4.9,0.3,1,0.0043,1284005,0.54,28.74,0.3445,0,0,1284005,0,96.0,128.4,1440,7.3,0.044,-0.274,0.878,-29.67,-21.81,5.88,79.91,18.78,3.981,4.012,31,3.986,3.991,3.981,3.988,3.981,4.003,3.998,3.987,3.995,4.01,3.984,4.006,3.994,3.996,4.007,3.993,3.996,4.002,4.011,3.991,27.7,27.4,,,,
996,4.2,5205,80.12,4.006,16.9,28.73,1354,18.2,33.3,30.7,27.0,4.05,1.28,2.23,1.56,0.53,0.19,0.82,0.79,4.5,0.3,1,0.0047,1284006,-1.98,25.85,0.3757,0,0,1284006,0,96.0,128.4,1440,8.0,0.206,-0.336,0.813,-28.93,-16.64,2.29,80.12,16.9,3.993,4.026,33,4.022,4.015,4.003,4.001,4.003,4.008,3.998,4.008,4.002,4.025,4.025,4.011,4.001,4.025,4.003,4.005,3.993,4.006,4.009,4.01,26.4,27.0,,,,
1079,4.24,5256,80.05,4.002,17.56,29.86,1406,17.1,33.4,30.8,27.0,3.59,1.37,1.97,1.38,0.56,0.21,0.82,0.79,3.9,0.3,1,0.0051,1284007,1.57,26.87,0.4082,0,0,1284007,0,96.0,128.4,1440,8.6,-0.156,-0.378,0.769,-23.28,-9.65,-1.43,80.05,17.56,3.985,4.021,36,4.009,4.011,4.017,3.999,3.997,4.021,3.991,4.011,4.008,3.987,4.015,4.017,4.008,4.012,4.015,3.99,4.004,4.003,4.015,4.014,27.6,27.2,,,,
1162,5.62,6974,80.32,4.016,15.08,25.63,1211,22.7,33.4,30.8,27.0,3.21,1.45,1.76,1.23,0.57,0.22,0.82,0.79,3.5,0.3,1,0.0055,1284008,1.07,23.07,0.4361,0,0,1284008,0,96.0,128.4,1440,9.3,-0.219,-0.45,0.751,-13.67,-1.61,-5.06,80.32,15.08,3.999,4.034,35,4.021,4.023,4.016,3.999,4.027,4.025,4.016,4.017,4.022,4.001,4.025,4.007,4.001,4.008,4.024,4.006,4.025,4.033,4.016,4.012,26.9,27.4,,,,
1245,5.85,7251,80.8,4.04,10.83,18.4,875,22.6,33.5,30.9,27.0,2.74,1.53,1.51,1.05,0.59,0.23,0.82,0.79,3.0,0.3,1,0.0057,1284010,0.33,16.56,0.4563,0,0,1284010,0,96.0,128.4,1440,10.0,-0.078,-0.378,0.759,-1.74,6.61,-8.39,80.8,10.83,4.028,4.051,23,4.034,4.043,4.044,4.043,4.034,4.04,4.038,4.038,4.03,4.048,4.032,4.05,4.049,4.028,4.038,4.046,4.05,4.038,4.034,4.033,27.9,26.4,,,,
1328,5.09,6312,80.41,4.021,14.27,24.26,1147,19.5,33.5,31.0,27.0,2.72,1.6,1.49,1.05,0.6,0.25,0.82,0.79,3.0,0.3,1,0.006,1284011,-0.56,21.83,0.4827,0,0,1284011,0,96.0,128.4,1440,10.6,-0.293,-0.14,0.794,10.48,14.11,-11.19,80.41,14.27,4.006,4.041,35,4.023,4.007,4.007,4.024,4.022,4.017,4.011,4.018,4.017,4.036,4.006,4.033,4.036,4.011,4.039,4.031,4.038,4.017,4.019,4.02,28.0,27.2,,,,
1411,6.16,7641,81.53,4.077,4.2,7.14,342,20.5,33.6,31.0,27.0,1.97,1.67,1.08,0.76,0.6,0.26,0.82,0.79,2.2,0.3,1,0.0061,1284012,0.96,6.42,0.4906,0,0,1284012,0,96.0,128.4,1440,11.3,-0.484,-0.104,0.851,20.92,20.06,-13.31,81.53,4.2,4.062,4.093,31,4.068,4.073,4.091,4.089,4.087,4.081,4.09,4.091,4.079,4.084,4.064,4.085,4.076,4.085,4.082,4.071,4.064,4.091,4.066,4.077,26.7,26.6,,,,
1494,7.86,9751,81.03,4.052,8.69,14.77,704,24.0,33.7,31.1,27.0,0.83,1.73,0.46,0.32,0.6,0.27,0.82,0.79,0.9,0.3,1,0.0063,1284014,1.87,13.29,0.5068,0,0,1284014,0,96.0,128.4,1440,12.0,-0.453,-0.382,0.924,27.82,23.83,-14.6,81.03,8.69,4.038,4.073,35,4.055,4.045,4.069,4.072,4.053,4.043,4.044,4.041,4.05,4.041,4.046,4.047,4.058,4.069,4.064,4.052,4.052,4.056,4.051,4.049,26.1,26.5,,,,
1577,6.21,7701,81.67,4.084,2.96,5.03,242,19.7,33.9,31.2,27.0,-0.4,1.79,-0.22,-0.16,0.59,0.28,0.82,0.79,0,0.3,1,0.0064,1284015,1.06,4.53,0.5124,0,0,1284015,0,96.0,128.4,1440,12.6,-0.537,-0.309,1.006,29.99,24.99,-15.0,81.67,2.96,4.067,4.105,38,4.099,4.1,4.068,4.068,4.094,4.101,4.085,4.089,4.067,4.082,4.102,4.098,4.099,4.104,4.076,4.071,4.073,4.087,4.093,4.103,27.4,27.3,,,,
1660,7.4,9170,82.0,4.1,0,0.0,0,21.9,34.1,31.2,27.0,-1.21,1.84,-0.66,-0.47,0.58,0.3,0.82,0.79,0,0.3,1,0.0064,1284017,-0.01,0.0,0.5124,0,0,1284017,0,96.0,128.4,1440,13.3,-0.134,-0.102,1.087,27.07,23.43,-14.47,82.0,0,4.087,4.113,26,4.103,4.105,4.09,4.089,4.1,4.102,4.097,4.093,4.102,4.087,4.095,4.099,4.112,4.104,4.11,4.099,4.093,4.093,4.112,4.105,26.6,26.0,,,,
1743,8.31,10301,82.0,4.1,0,0.0,0,22.7,34.3,31.3,27.0,-1.18,1.88,-0.65,-0.45,0.56,0.31,0.82,0.79,0,0.3,1,0.0064,1284019,1.9,0.0,0.5124,0,0,1284019,0,96.0,128.4,1440,13.9,-0.512,-0.291,1.159,19.55,19.3,-13.04,82.0,0,4.084,4.118,34,4.091,4.111,4.109,4.101,4.091,4.117,4.094,4.112,4.092,4.091,4.11,4.094,4.117,4.101,4.09,4.091,4.098,4.107,4.116,4.089,26.8,26.4,,,,
1826,7.42,9202,82.0,4.1,0,0.0,0,17.8,34.4,31.4,27.0,-1.96,1.91,-1.08,-0.76,0.54,0.32,0.82,0.79,0,0.3,1,0.0064,1284021,-0.51,0.0,0.5124,0,0,1284021,0,96.0,128.4,1440,14.6,-0.058,0.049,1.213,8.72,13.07,-10.81,82.0,0,4.079,4.114,35,4.085,4.112,4.105,4.08,4.102,4.092,4.092,4.09,4.085,4.079,4.089,4.091,4.112,4.083,4.113,4.086,4.091,4.108,4.108,4.094,26.1,26.9,,,,
1909,9.68,12004,82.0,4.1,0,0.0,0,23.1,34.6,31.4,27.0,-3.69,1.95,-2.03,-1.42,0.52,0.33,0.82,0.79,0,0.3,1,0.0064,1284023,1.82,0.0,0.5124,0,0,1284023,0,96.0,128.4,1440,15.3,-0.265,0.143,1.244,-3.6,5.41,-7.92,82.0,0,4.088,4.11,23,4.089,4.109,4.093,4.105,4.108,4.095,4.094,4.109,4.102,4.094,4.104,4.095,4.094,4.088,4.105,4.108,4.102,4.109,4.088,4.093,26.9,27.9,,,,
1992,8.8,10908,82.0,4.1,0,0.0,0,19.9,34.7,31.5,27.0,-3.22,1.97,-1.77,-1.24,0.49,0.34,0.82,0.79,0,0.3,1,0.0064,1284025,-1.06,0.0,0.5124,0,0,1284025,0,96.0,128.4,1440,15.9,-0.311,0.2,1.248,-15.3,-2.84,-4.54,82.0,0,4.08,4.119,40,4.104,4.093,4.092,4.094,4.111,4.083,4.088,4.109,4.089,4.082,4.081,4.102,4.093,4.118,4.115,4.119,4.09,4.083,4.084,4.099,27.4,26.9,,,,
2075,9.27,11490,82.0,4.1,0,0.0,0,21.6,34.9,31.6,27.0,-3.81,1.99,-2.1,-1.47,0.45,0.34,0.82,0.79,0,0.3,1,0.0064,1284027,-0.83,0.0,0.5124,0,0,1284027,0,96.0,128.4,1440,16.6,0.075,-0.014,1.226,-24.41,-10.78,-0.87,82.0,0,4.085,4.117,32,4.097,4.108,4.091,4.093,4.093,4.09,4.113,4.103,4.095,4.098,4.117,4.101,4.092,4.111,4.106,4.116,4.088,4.1,4.111,4.112,27.8,26.0,,,,
2158,8.95,11098,81.9,4.095,0.85,1.45,70,18.0,35.0,31.7,26.9,-4.1,2.0,-2.25,-1.58,0.42,0.35,0.82,0.79,0,0.3,1,0.0064,1284029,-0.42,1.3,0.514,0,0,1284029,0,96.0,128.4,1440,17.3,-0.001,0.336,1.178,-29.37,-17.55,2.84,81.9,0.85,4.081,4.115,34,4.113,4.084,4.101,4.102,4.088,4.093,4.085,4.088,4.089,4.101,4.103,4.088,4.081,4.092,4.104,4.087,4.091,4.088,4.108,4.099,26.1,26.2,,,,
2241,10.38,12876,82.0,4.1,0,0.0,0,22.6,35.1,31.7,26.9,-4.63,2.0,-2.55,-1.78,0.38,0.36,0.82,0.79,0,0.3,1,0.0064,1284032,0.49,0.0,0.514,0,0,1284032,0,96.0,128.4,1440,17.9,0.116,0.146,1.111,-29.34,-22.39,6.39,82.0,0,4.078,4.114,35,4.098,4.091,4.093,4.109,4.114,4.091,4.085,4.104,4.086,4.079,4.11,4.093,4.107,4.093,4.11,4.095,4.084,4.079,4.098,4.101,27.8,26.1,,,,
2324,10.35,12839,82.0,4.1,0,0.0,0,21.1,35.1,31.8,26.9,-4.96,2.0,-2.73,-1.91,0.33,0.37,0.82,0.79,0,0.3,1,0.0064,1284034,-1.51,0.0,0.514,0,0,1284034,0,96.0,128.4,1440,18.6,0.51,0.111,1.032,-24.34,-24.79,9.53,82.0,0,4.08,4.122,42,4.088,4.085,4.119,4.121,4.1,4.082,4.118,4.096,4.118,4.106,4.114,4.087,4.113,4.089,4.097,4.115,4.114,4.088,4.089,4.097,27.0,26.7,,,,
2407,10.46,12970,81.17,4.058,7.49,12.73,608,21.6,35.2,31.9,26.9,-4.9,1.99,-2.69,-1.89,0.28,0.37,0.82,0.79,0,0.3,1,0.0066,1284036,-0.23,11.46,0.528,0,0,1284036,0,96.0,128.4,1440,19.3,0.477,0.105,0.95,-15.2,-24.49,12.09,81.17,7.49,4.045,4.076,30,4.062,4.064,4.054,4.058,4.063,4.058,4.065,4.059,4.058,4.046,4.064,4.06,4.052,4.068,4.069,4.059,4.051,4.06,4.048,4.049,26.8,26.1,,,,
2490,11.49,14253,80.96,4.048,9.32,15.84,754,21.0,35.2,32.0,26.9,-4.54,1.97,-2.5,-1.75,0.24,0.38,0.82,0.79,0,0.3,1,0.0068,1284039,0.01,14.26,0.5454,0,0,1284039,0,96.0,128.4,1439,19.9,0.537,0.304,0.872,-3.48,-21.5,13.91,80.96,9.32,4.031,4.063,32,4.061,4.035,4.058,4.063,4.054,4.057,4.037,4.062,4.047,4.061,4.06,4.036,4.056,4.061,4.033,4.042,4.055,4.036,4.059,4.04,27.6,26.2,,,,
2573,12.88,15975,80.78,4.039,10.97,18.65,886,24.8,35.3,32.0,26.9,-4.75,1.95,-2.61,-1.83,0.18,0.38,0.82,0.79,0,0.3,1,0.0071,1284042,-1.29,16.79,0.5659,0,0,1284042,0,96.0,128.4,1439,20.6,0.118,0.17,0.809,8.83,-16.17,14.86,80.78,10.97,4.018,4.057,40,4.053,4.024,4.049,4.022,4.039,4.043,4.032,4.052,4.04,4.041,4.052,4.022,4.057,4.042,4.033,4.049,4.028,4.057,4.04,4.032,27.5,26.8,,,,
2656,12.87,15954,79.86,3.993,19.27,32.76,1539,23.8,35.4,32.1,26.9,-3.96,1.92,-2.18,-1.52,0.13,0.39,0.82,0.79,0,0.3,1,0.0075,1284045,-1.03,29.48,0.6013,0,0,1284045,0,96.0,128.4,1439,21.2,0.688,0.315,0.767,19.64,-9.08,14.9,79.86,19.27,3.978,4.003,25,3.979,3.981,3.993,3.989,3.991,4.0,3.981,3.983,3.994,3.978,3.978,3.987,3.98,3.987,3.983,3.992,3.993,3.983,3.993,3.99,26.2,27.8,,,,
2739,11.85,14692,79.82,3.991,19.63,33.37,1567,21.2,35.6,32.2,26.9,-3.27,1.88,-1.8,-1.26,0.08,0.39,0.82,0.79,0,0.3,1,0.008,1284048,-1.3,30.03,0.6374,0,0,1284048,0,96.0,128.4,1439,21.9,0.315,0.159,0.75,27.11,-0.99,14.02,79.82,19.63,3.972,4.008,35,3.985,3.995,3.988,4.005,3.998,3.981,4.004,3.974,3.991,3.987,3.981,3.974,4.0,3.973,3.992,4.006,3.977,3.979,3.994,3.99,27.2,27.6,,,,
2822,12.64,15676,79.9,3.995,18.84,32.03,1506,24.1,35.8,32.3,26.9,-2.64,1.84,-1.45,-1.02,0.02,0.39,0.82,0.79,0,0.3,1,0.0084,1284051,-0.96,28.83,0.6722,0,0,1284051,0,96.0,128.41,1439,22.6,0.457,0.018,0.761,29.99,7.21,12.28,79.9,18.84,3.976,4.011,35,4.002,3.992,3.984,3.979,3.984,3.977,3.988,4.002,4.0,4.005,4.001,3.985,3.995,3.991,4.003,3.994,3.985,3.998,4.01,3.983,27.7,26.0,,,,
2905,12.88,15967,78.61,3.93,30.51,51.87,2398,26.7,36.0,32.4,26.9,-2.49,1.79,-1.37,-0.96,-0.03,0.4,0.82,0.79,0,0.3,1,0.0091,1284054,-1.83,46.68,0.7275,0,0,1284054,0,96.0,128.41,1439,23.2,0.489,0.099,0.797,27.77,14.62,9.77,78.61,30.51,3.909,3.948,39,3.936,3.935,3.947,3.927,3.942,3.936,3.942,3.926,3.937,3.931,3.921,3.918,3.933,3.912,3.945,3.915,3.91,3.913,3.945,3.923,26.2,26.0,,,,
2988,14.38,17836,78.29,3.914,33.41,56.8,2616,30.5,36.2,32.5,26.9,-2.03,1.73,-1.12,-0.78,-0.09,0.4,0.82,0.79,0,0.3,1,0.0099,1284057,-0.87,51.12,0.7878,0,0,1284057,0,95.9,128.41,1439,23.9,0.232,0.058,0.856,20.84,20.43,6.67,78.29,33.41,3.894,3.935,41,3.897,3.93,3.931,3.933,3.898,3.902,3.899,3.895,3.929,3.927,3.92,3.928,3.92,3.906,3.898,3.898,3.925,3.902,3.907,3.911,26.0,26.5,,,,
3071,14.85,18418,78.29,3.915,33.34,56.68,2610,31.1,36.4,32.5,26.9,-0.7,1.67,-0.38,-0.27,-0.14,0.4,0.82,0.79,0,0.3,1,0.0106,1284060,1.78,51.01,0.8479,0,0,1284060,0,95.9,128.41,1439,24.6,0.295,0.1,0.93,10.37,24.01,3.15,78.29,33.34,3.899,3.93,31,3.923,3.909,3.921,3.915,3.905,3.926,3.901,3.924,3.904,3.899,3.905,3.922,3.929,3.899,3.914,3.914,3.924,3.904,3.914,3.909,27.6,26.5,,,,
3154,14.23,17647,77.77,3.888,38.08,64.73,2961,29.5,36.6,32.6,26.9,-0.34,1.61,-0.19,-0.13,-0.19,0.4,0.82,0.79,0,0.3,1,0.0115,1284064,-1.38,58.26,0.9162,0,0,1284064,0,95.9,128.41,1439,25.2,0.067,-0.177,1.012,-1.86,24.97,-0.56,77.77,38.08,3.869,3.908,38,3.893,3.883,3.885,3.885,3.904,3.873,3.903,3.87,3.877,3.879,3.904,3.889,3.884,3.903,3.878,3.887,3.89,3.898,3.898,3.894,26.6,26.6,,,,
3237,15.99,19827,77.27,3.863,42.58,72.39,3290,36.6,36.7,32.7,27.0,0.87,1.54,0.48,0.34,-0.24,0.4,0.82,0.79,1.0,0.3,1,0.0125,1284067,-0.26,65.15,0.9921,0,0,1284067,0,95.9,128.41,1439,25.9,0.051,-0.039,1.093,-13.77,23.2,-4.23,77.27,42.58,3.847,3.884,37,3.856,3.854,3.858,3.873,3.878,3.852,3.853,3.856,3.859,3.866,3.853,3.859,3.854,3.883,3.874,3.85,3.883,3.85,3.861,3.883,27.5,27.4,,,,
3320,14.85,18420,77.96,3.898,36.33,61.77,2832,34.4,36.7,32.8,27.0,1.61,1.46,0.89,0.62,-0.29,0.4,0.82,0.79,1.8,0.3,1,0.0133,1284071,-1.61,55.59,1.0574,0,0,1284071,0,95.9,128.41,1439,26.6,-0.484,-0.17,1.164,-23.35,18.9,-7.65,77.96,36.33,3.879,3.914,35,3.901,3.895,3.884,3.9,3.893,3.905,3.911,3.894,3.899,3.905,3.894,3.887,3.904,3.91,3.906,3.904,3.909,3.903,3.901,3.895,26.6,27.2,,,,
3403,15.81,19604,77.16,3.858,43.55,74.03,3360,38.4,36.9,32.9,27.0,2.2,1.38,1.21,0.85,-0.34,0.4,0.82,0.79,2.4,0.3,1,0.0143,1284074,1.79,66.62,1.1348,0,0,1284074,0,95.9,128.41,1439,27.2,-0.328,-0.2,1.216,-28.96,12.53,-10.59,77.16,43.55,3.842,3.876,34,3.874,3.848,3.864,3.868,3.855,3.859,3.875,3.843,3.86,3.847,3.869,3.874,3.86,3.845,3.861,3.86,3.866,3.859,3.864,3.87,27.0,26.8,,,,
3486,15.73,19501,77.52,3.876,40.31,68.53,3125,38.8,37.2,33.0,27.0,2.72,1.29,1.5,1.05,-0.38,0.39,0.82,0.79,3.0,0.3,1,0.0153,1284078,-0.59,61.67,1.2069,0,0,1284078,0,95.9,128.41,1439,27.9,-0.053,-0.285,1.245,-29.66,4.8,-12.88,77.52,40.31,3.861,3.891,30,3.862,3.874,3.874,3.882,3.872,3.869,3.868,3.883,3.889,3.877,3.868,3.885,3.873,3.867,3.865,3.884,3.885,3.88,3.875,3.878,26.4,27.9,,,,
3569,17.18,21300,76.97,3.848,45.27,76.96,3485,44.2,37.3,33.1,27.0,3.53,1.2,1.94,1.36,-0.42,0.39,0.82,0.79,3.9,0.3,1,0.0163,1284082,1.33,69.27,1.2872,0,0,1284082,0,95.9,128.41,1439,28.6,-0.354,-0.413,1.248,-25.32,-3.46,-14.38,76.97,45.27,3.833,3.869,36,3.842,3.846,3.842,3.848,3.839,3.833,3.859,3.843,3.842,3.844,3.85,3.848,3.856,3.856,3.846,3.866,3.863,3.835,3.862,3.865,27.5,26.3,,,,
3652,17.59,21807,77.87,3.894,37.11,63.09,2890,43.2,37.6,33.2,27.0,4.45,1.1,2.45,1.71,-0.46,0.39,0.82,0.79,4.9,0.3,1,0.0172,1284086,-0.03,56.78,1.3538,0,0,1284086,0,95.9,128.41,1439,29.2,-0.55,-0.446,1.223,-16.68,-11.34,-14.99,77.87,37.11,3.879,3.913,34,3.891,3.884,3.91,3.906,3.885,3.909,3.9,3.906,3.902,3.909,3.906,3.908,3.886,3.903,3.897,3.904,3.894,3.909,3.898,3.888,26.4,26.3,,,,
3735,16.63,20623,78.12,3.906,34.92,59.36,2728,43.6,37.8,33.3,27.0,4.63,1.01,2.55,1.78,-0.49,0.38,0.82,0.79,5.1,0.3,1,0.018,1284090,1.45,53.42,1.4167,0,0,1284090,0,95.9,128.41,1439,29.9,-0.368,-0.154,2.974,-5.21,-17.98,-14.67,78.12,34.92,3.885,3.921,36,3.906,3.909,3.916,3.899,3.901,3.92,3.888,3.908,3.908,3.886,3.907,3.91,3.919,3.897,3.921,3.904,3.903,3.918,3.887,3.911,27.2,26.7,,,,
3818,17.79,22066,77.84,3.892,37.44,63.65,2914,47.8,38.0,33.3,27.0,4.53,0.9,2.49,1.75,-0.52,0.38,0.82,0.79,5.0,0.3,1,0.0188,1284094,1.69,57.28,1.4839,0,0,1284094,0,95.9,128.41,1439,30.5,-0.398,-0.329,1.106,7.14,-22.66,-13.45,77.84,37.44,3.872,3.905,34,3.9,3.885,3.889,3.881,3.889,3.904,3.894,3.898,3.883,3.882,3.882,3.891,3.893,3.898,3.873,3.896,3.901,3.89,3.873,3.882,26.0,26.4,,,,
3901,18.8,23316,77.74,3.887,38.3,65.1,2977,52.3,38.3,33.4,27.0,5.13,0.8,2.82,1.97,-0.55,0.37,0.82,0.79,5.6,0.3,1,0.0197,1284098,0.27,58.59,1.5526,0,0,1284098,0,95.9,128.41,1439,31.2,-0.234,-0.233,1.026,18.29,-24.87,-11.4,77.74,38.3,3.869,3.905,36,3.877,3.893,3.886,3.897,3.873,3.876,3.87,3.897,3.902,3.893,3.882,3.899,3.898,3.889,3.878,3.88,3.884,3.881,3.885,3.892,27.9,26.1,,,,
3984,17.87,22153,78.22,3.911,33.96,57.73,2656,48.7,38.5,33.5,27.0,5.47,0.69,3.01,2.11,-0.57,0.37,0.82,0.79,6.0,0.3,1,0.0205,1284102,0.85,51.96,1.6138,0,0,1284102,0,95.9,128.41,1439,31.9,-0.263,-0.452,0.943,26.32,-24.35,-8.65,78.22,33.96,3.893,3.932,39,3.932,3.912,3.909,3.897,3.918,3.902,3.899,3.894,3.893,3.92,3.898,3.931,3.897,3.927,3.898,3.894,3.921,3.903,3.922,3.901,26.1,27.5,,,,
4067,20.25,25113,78.95,3.948,27.38,46.55,2162,58.3,38.7,33.6,27.0,7.06,0.58,3.88,2.72,-0.58,0.36,0.82,0.79,7.8,0.3,1,0.0211,1284107,1.14,41.9,1.6637,0,0,1284107,0,95.9,128.41,1439,32.5,-0.167,-0.048,0.867,29.89,-21.18,-5.36,78.95,27.38,3.926,3.966,40,3.926,3.927,3.952,3.959,3.929,3.939,3.955,3.933,3.961,3.946,3.928,3.941,3.949,3.944,3.953,3.932,3.958,3.941,3.952,3.951,26.8,26.8,,,,
4150,20.9,25913,78.75,3.938,29.2,49.64,2299,61.1,38.9,33.7,27.0,5.98,0.47,3.29,2.3,-0.59,0.35,0.82,0.79,6.6,0.3,1,0.0218,1284112,0.29,44.67,1.7167,0,0,1284112,0,95.9,128.41,1438,33.2,0.238,-0.093,0.805,28.38,-15.7,-1.74,78.75,29.2,3.922,3.955,33,3.954,3.949,3.942,3.932,3.936,3.951,3.935,3.945,3.942,3.951,3.949,3.931,3.922,3.931,3.936,3.941,3.949,3.951,3.924,3.949,27.6,27.7,,,,
4233,19.72,24451,79.07,3.953,26.36,44.81,2084,59.0,39.1,33.8,27.0,4.59,0.36,2.52,1.77,-0.6,0.34,0.82,0.79,5.0,0.3,1,0.0224,1284116,-1.23,40.33,1.7647,0,0,1284116,0,95.9,128.41,1438,33.9,-0.039,-0.286,0.765,22.06,-8.5,1.98,79.07,26.36,3.933,3.966,32,3.958,3.964,3.941,3.953,3.955,3.948,3.94,3.942,3.958,3.959,3.948,3.936,3.959,3.958,3.941,3.952,3.962,3.962,3.95,3.949,27.2,26.4,,,,
4316,19.93,24710,79.83,3.991,19.5,33.15,1557,59.6,39.4,33.9,27.0,3.44,0.24,1.89,1.33,-0.6,0.33,0.82,0.79,3.8,0.3,1,0.0229,1284121,-1.2,29.84,1.8006,0,0,1284121,0,95.9,128.41,1438,34.5,0.159,-0.202,0.75,11.99,-0.37,5.59,79.83,19.5,3.969,4.006,36,3.973,3.993,3.998,3.975,3.991,3.982,3.988,3.97,3.971,4.006,4.001,3.987,3.99,3.979,3.998,3.985,4.004,3.997,3.999,4.005,26.5,26.1,,,,
4399,20.36,25248,80.39,4.019,14.47,24.59,1163,58.7,39.6,34.0,27.0,5.38,0.12,2.96,2.07,-0.6,0.32,0.82,0.79,5.9,0.3,1,0.0232,1284126,0.84,22.13,1.8274,0,0,1284126,0,95.9,128.41,1438,35.2,0.211,0.179,0.762,-0.12,7.8,8.84,80.39,14.47,4.007,4.037,30,4.019,4.01,4.035,4.014,4.024,4.026,4.035,4.027,4.018,4.02,4.012,4.036,4.036,4.013,4.008,4.014,4.017,4.034,4.034,4.032,26.1,27.6,,,,
4482,21.91,27175,80.41,4.02,14.27,24.25,1147,66.7,39.7,34.1,27.0,4.53,0.01,2.49,1.74,-0.59,0.31,0.82,0.79,5.0,0.3,1,0.0235,1284131,1.37,21.83,1.8539,0,0,1284131,0,95.9,128.41,1438,35.9,0.572,0.133,0.801,-12.2,15.11,11.56,80.41,14.27,4.003,4.04,37,4.006,4.015,4.012,4.007,4.02,4.009,4.011,4.008,4.028,4.003,4.029,4.01,4.004,4.037,4.011,4.037,4.035,4.035,4.008,4.019,26.2,27.8,,,,
4565,22.31,27661,80.28,4.014,15.46,26.28,1241,65.8,40.0,34.2,27.0,3.43,-0.11,1.88,1.32,-0.57,0.3,0.82,0.79,3.8,0.3,1,0.0239,1284136,-1.19,23.65,1.8825,0,0,1284136,0,95.9,128.41,1438,36.5,0.438,-0.021,0.861,-22.22,20.78,13.56,80.28,15.46,4.001,4.032,31,4.019,4.006,4.028,4.01,4.014,4.006,4.01,4.027,4.012,4.007,4.017,4.011,4.029,4.005,4.032,4.003,4.029,4.022,4.008,4.016,26.6,26.5,,,,
4648,22.11,27417,79.8,3.99,19.77,33.61,1578,67.4,40.3,34.3,27.0,2.16,-0.22,1.19,0.83,-0.55,0.29,0.82,0.79,2.4,0.3,1,0.0243,1284141,-0.9,30.25,1.9189,0,0,1284141,0,95.9,128.41,1438,37.2,0.266,0.334,0.936,-28.46,24.18,14.72,79.8,19.77,3.971,4.003,33,4.003,3.971,3.997,3.982,3.975,3.971,3.998,3.988,3.977,3.985,4.001,3.978,3.989,3.975,3.977,3.996,3.994,3.977,3.973,3.973,27.2,27.0,,,,
4731,22.17,27490,80.16,4.008,16.52,28.09,1325,65.9,40.6,34.4,27.0,1.91,-0.34,1.05,0.74,-0.53,0.28,0.82,0.79,2.1,0.3,1,0.0247,1284146,0.86,25.28,1.9494,0,0,1284146,0,95.9,128.41,1438,37.8,0.221,0.048,1.019,-29.87,24.93,14.98,80.16,16.52,3.992,4.027,35,3.994,4.02,4.003,4.021,4.022,4.009,3.992,4.023,4.008,4.022,4.001,3.998,4.021,4.005,3.998,4.005,4.013,3.992,4.01,4.007,27.0,26.2,,,,
4814,24.07,29852,80.26,4.013,15.65,26.6,1256,71.6,40.9,34.6,27.0,0.85,-0.45,0.47,0.33,-0.5,0.27,0.82,0.79,0.9,0.3,1,0.0251,1284152,-1.82,23.94,1.9783,0,0,1284152,0,95.9,128.42,1438,38.5,0.532,0.083,1.099,-26.21,22.96,14.31,80.26,15.65,3.991,4.029,37,4.01,4.011,4.011,3.992,4.028,4.0,3.998,3.995,4.001,4.022,3.992,3.995,4.017,3.999,3.992,4.014,4.013,4.011,4.018,3.995,27.7,27.4,,,,
4897,22.85,28335,80.2,4.01,16.14,27.43,1294,66.5,41.1,34.7,27.0,-0.26,-0.56,-0.14,-0.1,-0.47,0.26,0.82,0.79,0,0.3,1,0.0255,1284157,0.07,24.69,2.0082,0,0,1284157,0,95.9,128.42,1438,39.2,0.284,0.139,1.168,-18.1,18.49,12.76,80.2,16.14,3.989,4.022,32,4.008,4.014,3.995,4.016,4.02,4.002,4.003,4.017,4.006,4.002,4.02,4.015,4.0,3.997,4.0,4.004,4.021,4.015,4.019,4.016,27.7,26.1,,,,
4980,25.3,31367,79.94,3.997,18.52,31.48,1480,74.1,41.3,34.8,27.0,-0.39,-0.68,-0.22,-0.15,-0.43,0.24,0.82,0.79,0,0.3,1,0.0259,1284163,-0.78,28.33,2.0423,0,0,1284163,0,95.9,128.42,1438,39.8,0.197,0.31,1.219,-6.92,11.99,10.42,79.94,18.52,3.98,4.013,32,3.981,3.985,4.012,4.006,4.011,4.001,4.007,4.009,4.009,3.982,4.001,3.989,4.002,3.989,3.998,4.01,4.001,3.989,3.997,3.995,27.9,26.6,,,,
5063,24.99,30993,79.44,3.972,23.0,39.11,1827,69.3,41.6,34.9,27.0,-1.21,-0.78,-0.67,-0.47,-0.39,0.23,0.82,0.79,0,0.3,1,0.0264,1284169,0.34,35.2,2.0844,0,0,1284169,0,95.8,128.42,1438,40.5,0.059,0.285,1.246,5.44,4.19,7.44,79.44,23.0,3.958,3.983,25,3.962,3.966,3.969,3.966,3.964,3.961,3.972,3.979,3.974,3.973,3.975,3.963,3.976,3.97,3.972,3.974,3.97,3.966,3.964,3.964,27.0,26.8,,,,
5146,23.91,29651,79.08,3.954,26.22,44.58,2074,66.6,41.8,35.0,27.0,-1.74,-0.89,-0.96,-0.67,-0.35,0.22,0.82,0.79,0,0.3,1,0.027,1284174,1.04,40.12,2.1323,0,0,1284174,0,95.8,128.42,1438,41.2,0.102,0.201,1.247,16.87,-4.07,4.0,79.08,26.22,3.939,3.973,34,3.944,3.941,3.969,3.954,3.941,3.952,3.954,3.964,3.943,3.947,3.972,3.964,3.944,3.951,3.951,3.962,3.96,3.968,3.967,3.957,27.5,27.5,,,,
5229,25.47,31582,78.68,3.934,29.78,50.63,2344,71.4,42.1,35.1,27.0,-2.74,-0.99,-1.51,-1.06,-0.3,0.2,0.82,0.79,0,0.3,1,0.0277,1284180,0.3,45.57,2.1863,0,0,1284180,0,95.8,128.42,1438,41.8,0.231,0.064,1.22,25.44,-11.89,0.31,78.68,29.78,3.916,3.95,34,3.949,3.936,3.93,3.943,3.946,3.937,3.929,3.932,3.932,3.941,3.926,3.93,3.935,3.929,3.927,3.943,3.945,3.933,3.931,3.923,26.6,26.3,,,,
5312,26.17,32452,78.02,3.901,35.77,60.81,2791,69.5,42.3,35.2,27.0,-2.25,-1.09,-1.24,-0.86,-0.26,0.19,0.82,0.79,0,0.3,1,0.0285,1284186,0.3,54.73,2.2506,0,0,1284186,0,95.8,128.42,1437,42.5,0.112,0.41,1.169,29.69,-18.41,-3.39,78.02,35.77,3.885,3.922,37,3.885,3.886,3.906,3.903,3.919,3.913,3.905,3.922,3.904,3.904,3.91,3.899,3.898,3.907,3.898,3.92,3.91,3.904,3.888,3.899,26.8,27.1,,,,
5395,27.33,33894,77.9,3.895,36.82,62.59,2868,74.9,42.5,35.3,27.0,-2.75,-1.19,-1.51,-1.06,-0.2,0.17,0.82,0.79,0,0.3,1,0.0294,1284192,-1.83,56.33,2.3168,0,0,1284192,0,95.8,128.42,1437,43.2,0.114,0.119,1.1,28.9,-22.92,-6.89,77.9,36.82,3.875,3.907,32,3.885,3.906,3.902,3.891,3.878,3.904,3.897,3.901,3.907,3.904,3.888,3.88,3.884,3.891,3.891,3.881,3.881,3.895,3.894,3.886,28.0,27.3,,,,
5478,26.66,33055,77.81,3.89,37.68,64.05,2931,71.4,42.7,35.4,27.0,-3.59,-1.28,-1.98,-1.38,-0.15,0.16,0.82,0.79,0,0.3,1,0.0302,1284198,0.86,57.64,2.3843,0,0,1284198,0,95.8,128.42,1437,43.8,-0.383,0.265,1.02,23.2,-24.92,-9.96,77.81,37.68,3.872,3.903,31,3.887,3.889,3.88,3.892,3.888,3.903,3.889,3.884,3.875,3.876,3.895,3.875,3.875,3.877,3.888,3.897,3.891,3.897,3.874,3.872,27.5,26.6,,,,
5561,26.97,33441,77.42,3.871,41.15,69.96,3186,68.6,42.9,35.5,27.0,-2.48,-1.36,-1.36,-0.95,-0.1,0.14,0.82,0.79,0,0.3,1,0.0312,1284205,1.5,62.96,2.4578,0,0,1284205,0,95.8,128.42,1437,44.5,-0.282,0.009,0.937,13.57,-24.21,-12.42,77.42,41.15,3.855,3.882,27,3.879,3.871,3.881,3.867,3.872,3.862,3.856,3.88,3.878,3.863,3.879,3.877,3.863,3.871,3.881,3.868,3.88,3.862,3.865,3.874,26.4,26.6,,,,
5644,27.73,34387,76.96,3.848,45.27,76.96,3484,71.9,43.0,35.7,27.0,-2.96,-1.45,-1.63,-1.14,-0.04,0.13,0.82,0.79,0,0.3,1,0.0322,1284211,1.22,69.26,2.5381,0,0,1284211,0,95.8,128.42,1437,45.2,-0.564,0.197,0.862,1.63,-20.84,-14.11,76.96,45.27,3.83,3.859,29,3.846,3.842,3.842,3.832,3.834,3.854,3.841,3.838,3.836,3.839,3.837,3.831,3.85,3.84,3.835,3.851,3.833,3.838,3.855,3.834,26.9,27.7,,,,
5727,27.4,33979,76.2,3.81,52.11,88.59,3971,68.2,43.2,35.8,27.0,-1.93,-1.53,-1.06,-0.74,0.01,0.11,0.82,0.79,0,0.3,1,0.0334,1284217,1.4,79.73,2.6297,0,0,1284217,0,95.8,128.42,1437,45.8,-0.573,0.127,0.802,-10.59,-15.21,-14.93,76.2,52.11,3.796,3.825,30,3.8,3.817,3.804,3.823,3.813,3.807,3.803,3.814,3.802,3.822,3.799,3.811,3.812,3.804,3.819,3.807,3.815,3.813,3.805,3.807,26.2,26.4,,,,
5810,28.24,35021,76.39,3.82,50.39,85.66,3849,70.6,43.4,35.9,27.0,-2.22,-1.6,-1.22,-0.86,0.06,0.09,0.82,0.79,0,0.3,1,0.0346,1284224,-1.54,77.1,2.7184,0,0,1284224,0,95.8,128.42,1437,46.5,-0.395,-0.195,0.763,-21.01,-7.91,-14.83,76.39,50.39,3.805,3.832,28,3.808,3.824,3.812,3.816,3.83,3.826,3.829,3.828,3.808,3.812,3.805,3.823,3.823,3.814,3.816,3.823,3.824,3.811,3.828,3.814,27.3,26.4,,,,
5893,30.12,37343,75.26,3.763,60.6,103.02,4561,74.8,43.5,36.0,27.0,-2.07,-1.66,-1.14,-0.8,0.12,0.08,0.82,0.79,0,0.3,1,0.036,1284231,1.66,92.72,2.8236,0,0,1284231,0,95.8,128.42,1437,47.1,-0.571,-0.289,0.75,-27.86,0.25,-13.81,75.26,60.6,3.747,3.773,26,3.755,3.764,3.752,3.769,3.762,3.766,3.754,3.759,3.765,3.756,3.747,3.769,3.767,3.755,3.748,3.77,3.763,3.748,3.754,3.75,27.6,26.5,,,,
5976,30.18,37420,75.09,3.754,62.13,105.63,4665,71.4,43.7,36.1,27.0,-0.59,-1.73,-0.32,-0.23,0.17,0.06,0.82,0.79,0,0.3,1,0.0374,1284238,-1.76,95.06,2.9311,0,0,1284238,0,95.8,128.42,1437,47.8,-0.121,-0.303,0.764,-29.98,8.39,-11.95,75.09,62.13,3.733,3.769,37,3.767,3.758,3.76,3.763,3.756,3.749,3.735,3.758,3.749,3.752,3.767,3.738,3.761,3.734,3.759,3.762,3.742,3.753,3.768,3.756,27.1,26.5,,,,
6059,29.4,36456,75.59,3.779,57.61,97.93,4355,69.9,43.9,36.2,27.0,-0.6,-1.78,-0.33,-0.23,0.22,0.04,0.82,0.79,0,0.3,1,0.0388,1284245,-0.88,88.14,3.0315,0,0,1284245,0,95.8,128.42,1437,48.5,-0.125,-0.186,0.805,-27.02,15.6,-9.34,75.59,57.61,3.765,3.796,31,3.779,3.794,3.776,3.774,3.792,3.769,3.782,3.775,3.79,3.782,3.788,3.77,3.785,3.783,3.779,3.789,3.79,3.769,3.774,3.776,26.5,26.2,,,,
6142,29.06,36031,75.36,3.768,59.71,101.51,4500,69.6,44.0,36.4,27.1,0.4,-1.83,0.22,0.15,0.27,0.03,0.82,0.79,0.4,0.3,1,0.0401,1284251,1.36,91.36,3.1353,0,0,1284251,0,95.8,128.43,1437,49.1,-0.183,-0.336,0.866,-19.46,21.12,-6.17,75.36,59.71,3.755,3.778,23,3.778,3.772,3.757,3.771,3.777,3.768,3.758,3.766,3.765,3.759,3.767,3.755,3.776,3.77,3.769,3.776,3.77,3.761,3.761,3.758,26.1,27.6,,,,
6225,29.34,36379,75.15,3.758,61.52,104.59,4624,67.7,44.3,36.5,27.1,1.93,-1.88,1.06,0.74,0.32,0.01,0.82,0.79,2.1,0.3,1,0.0416,1284258,-1.35,94.13,3.2419,0,0,1284258,0,95.8,128.43,1437,49.8,-0.268,-0.183,0.942,-8.61,24.33,-2.61,75.15,61.52,3.738,3.772,33,3.744,3.766,3.749,3.751,3.757,3.751,3.766,3.746,3.74,3.757,3.759,3.766,3.762,3.768,3.77,3.755,3.755,3.744,3.748,3.758,26.2,27.4,,,,
6308,29.73,36869,75.74,3.787,56.21,95.55,4257,71.5,44.4,36.6,27.1,2.18,-1.91,1.2,0.84,0.37,-0.0,0.82,0.79,2.4,0.3,1,0.0428,1284265,1.46,86.0,3.34,0,0,1284265,0,95.8,128.43,1436,50.5,-0.156,-0.21,2.825,3.71,24.88,1.12,75.74,56.21,3.767,3.807,41,3.799,3.784,3.778,3.794,3.788,3.784,3.781,3.785,3.794,3.8,3.804,3.774,3.779,3.785,3.79,3.781,3.775,3.77,3.78,3.786,28.0,27.9,,,,
6391,31.05,38502,75.18,3.759,61.28,104.17,4607,74.6,44.7,36.7,27.1,2.54,-1.94,1.4,0.98,0.41,-0.02,0.82,0.79,2.8,0.3,1,0.0443,1284272,1.45,93.76,3.4463,0,0,1284272,0,95.8,128.43,1436,51.1,0.233,-0.246,1.105,15.4,22.71,4.77,75.18,61.28,3.741,3.78,39,3.76,3.767,3.753,3.755,3.776,3.742,3.749,3.768,3.759,3.745,3.767,3.756,3.764,3.758,3.762,3.763,3.757,3.746,3.748,3.776,27.2,26.3,,,,
6474,29.36,36408,75.77,3.788,56.02,95.23,4244,66.7,44.8,36.8,27.1,3.85,-1.97,2.12,1.48,0.45,-0.04,0.82,0.79,4.2,0.3,1,0.0456,1284279,-1.05,85.71,3.5441,0,0,1284279,0,95.7,128.43,1436,51.8,0.249,-0.376,1.173,24.47,18.06,8.13,75.77,56.02,3.775,3.804,29,3.792,3.777,3.787,3.777,3.788,3.8,3.791,3.796,3.797,3.778,3.804,3.796,3.778,3.799,3.787,3.78,3.803,3.792,3.798,3.779,27.6,26.2,,,,
6557,29.69,36814,75.94,3.797,54.47,92.6,4136,67.3,44.9,36.9,27.1,4.36,-1.99,2.4,1.68,0.48,-0.05,0.82,0.79,4.8,0.3,1,0.0468,1284286,-0.98,83.34,3.6395,0,0,1284286,0,95.7,128.43,1436,52.5,0.417,-0.262,1.222,29.39,11.45,10.98,75.94,54.47,3.779,3.817,39,3.8,3.814,3.812,3.785,3.807,3.792,3.808,3.805,3.811,3.783,3.793,3.807,3.815,3.807,3.78,3.802,3.782,3.8,3.81,3.783,27.9,27.4,,,,
6640,29.3,36331,76.08,3.804,53.16,90.38,4045,68.3,45.1,37.0,27.1,4.81,-2.0,2.65,1.85,0.51,-0.07,0.82,0.79,5.3,0.3,1,0.048,1284292,1.38,81.34,3.7327,0,0,1284292,0,95.7,128.43,1436,53.1,0.064,-0.344,1.247,29.32,3.58,13.16,76.08,53.16,3.79,3.821,31,3.799,3.811,3.802,3.795,3.817,3.807,3.811,3.815,3.819,3.791,3.801,3.795,3.806,3.817,3.815,3.791,3.796,3.815,3.811,3.802,27.0,26.4,,,,
6723,29.82,36978,76.59,3.829,48.61,82.64,3723,71.8,45.2,37.2,27.1,5.65,-2.0,3.11,2.17,0.54,-0.09,0.82,0.79,6.2,0.3,1,0.0492,1284299,-1.86,74.38,3.8186,0,0,1284299,0,95.7,128.43,1436,53.8,0.217,0.021,1.246,24.27,-4.68,14.53,76.59,48.61,3.817,3.841,24,3.826,3.828,3.831,3.826,3.826,3.817,3.831,3.825,3.817,3.828,3.841,3.818,3.82,3.833,3.824,3.824,3.829,3.823,3.831,3.83,28.0,28.1,,,,
6806,30.26,37526,76.63,3.832,48.19,81.93,3693,73.1,45.5,37.3,27.1,6.49,-2.0,3.57,2.5,0.56,-0.1,0.82,0.79,7.1,0.3,1,0.0503,1284306,-0.19,73.74,3.9037,0,0,1284306,0,95.7,128.43,1436,54.4,0.481,-0.133,1.217,15.1,-12.43,15.0,76.63,48.19,3.812,3.852,40,3.85,3.839,3.824,3.843,3.842,3.832,3.837,3.826,3.834,3.828,3.814,3.825,3.825,3.852,3.831,3.827,3.822,3.821,3.826,3.817,26.1,27.8,,,,
6889,30.03,37233,77.62,3.881,39.31,66.82,3051,72.3,45.6,37.4,27.1,6.16,-1.99,3.39,2.37,0.58,-0.12,0.82,0.79,6.8,0.3,1,0.0512,1284313,-1.2,60.14,3.9741,0,0,1284313,0,95.7,128.43,1436,55.1,0.269,-0.093,1.165,3.37,-18.82,14.55,77.62,39.31,3.864,3.902,39,3.877,3.899,3.886,3.867,3.87,3.886,3.902,3.877,3.894,3.88,3.897,3.866,3.882,3.898,3.874,3.873,3.864,3.87,3.874,3.891,26.5,26.9,,,,
6972,30.44,37750,77.58,3.879,39.66,67.42,3077,75.4,45.7,37.5,27.1,7.19,-1.97,3.95,2.77,0.59,-0.14,0.82,0.79,7.9,0.3,1,0.0521,1284320,-0.15,60.68,4.045,0,0,1284320,0,95.7,128.43,1436,55.8,0.63,0.086,1.094,-8.94,-23.16,13.19,77.58,39.66,3.859,3.9,41,3.873,3.864,3.867,3.881,3.894,3.885,3.896,3.868,3.872,3.889,3.885,3.875,3.887,3.873,3.861,3.876,3.861,3.884,3.873,3.879,27.3,26.6,,,,
7055,29.07,36045,78.23,3.911,33.85,57.55,2648,72.9,46.0,37.6,27.1,6.47,-1.95,3.56,2.49,0.6,-0.15,0.82,0.79,7.1,0.3,1,0.0529,1284327,1.76,51.79,4.1061,0,0,1284327,0,95.7,128.43,1436,56.4,0.363,0.195,1.014,-19.72,-24.96,11.03,78.23,33.85,3.898,3.923,25,3.902,3.917,3.901,3.919,3.909,3.912,3.913,3.912,3.915,3.913,3.907,3.917,3.905,3.916,3.917,3.918,3.906,3.918,3.923,3.91,26.7,27.2,,,,
7138,29.39,36446,78.58,3.929,30.7,52.2,2413,71.1,46.2,37.7,27.1,7.28,-1.92,4.0,2.8,0.6,-0.17,0.82,0.79,8.0,0.3,1,0.0536,1284334,-0.7,46.98,4.1617,0,0,1284334,0,95.7,128.43,1435,57.1,0.136,0.357,0.931,-27.16,-24.04,8.18,78.58,30.7,3.909,3.94,31,3.91,3.913,3.911,3.925,3.926,3.915,3.938,3.92,3.914,3.915,3.932,3.937,3.914,3.91,3.933,3.917,3.939,3.924,3.929,3.92,27.7,27.0,,,,
7221,31.28,38790,78.29,3.914,33.29,56.6,2606,77.5,46.3,37.8,27.1,6.94,-1.88,3.82,2.67,0.6,-0.18,0.82,0.79,7.6,0.3,1,0.0543,1284341,-0.67,50.94,4.2218,0,0,1284341,0,95.7,128.43,1435,57.8,0.07,0.355,0.857,-29.99,-20.5,4.83,78.29,33.29,3.897,3.929,33,3.927,3.928,3.917,3.904,3.905,3.905,3.911,3.904,3.903,3.921,3.918,3.906,3.929,3.904,3.915,3.902,3.925,3.925,3.905,3.921,27.8,26.7,,,,
7304,30.32,37594,79.22,3.961,24.93,42.38,1975,79.2,46.6,37.9,27.1,6.57,-1.84,3.62,2.53,0.59,-0.2,0.82,0.79,7.2,0.3,1,0.0549,1284348,1.92,38.14,4.2673,0,0,1284348,0,95.7,128.43,1435,58.4,0.003,0.281,0.798,-27.73,-14.71,1.19,79.22,24.93,3.947,3.981,35,3.959,3.974,3.977,3.953,3.977,3.981,3.957,3.948,3.951,3.981,3.947,3.978,3.952,3.972,3.95,3.953,3.97,3.95,3.959,3.979,27.6,27.9,,,,
7387,29.27,36294,78.89,3.945,27.85,47.35,2197,75.0,46.8,38.0,27.1,5.47,-1.79,3.01,2.1,0.58,-0.21,0.82,0.79,6.0,0.3,1,0.0556,1284355,-1.29,42.61,4.318,0,0,1284355,0,95.7,128.44,1435,59.1,-0.065,0.171,0.761,-20.76,-7.32,-2.54,78.89,27.85,3.932,3.955,23,3.955,3.939,3.952,3.934,3.943,3.935,3.942,3.936,3.947,3.935,3.949,3.943,3.934,3.94,3.943,3.953,3.94,3.937,3.954,3.952,27.6,26.7,,,,
7470,29.86,37030,79.62,3.981,21.28,36.18,1695,77.0,47.0,38.1,27.1,5.36,-1.74,2.95,2.06,0.56,-0.22,0.82,0.79,5.9,0.3,1,0.0561,1284361,-1.21,32.56,4.357,0,0,1284361,0,95.7,128.44,1435,59.8,-0.129,0.24,0.75,-10.26,0.87,-6.1,79.62,21.28,3.962,3.999,37,3.982,3.982,3.988,3.998,3.994,3.989,3.977,3.974,3.978,3.998,3.976,3.976,3.977,3.967,3.999,3.962,3.984,3.996,3.972,3.985,26.9,26.6,,,,
7553,29.54,36634,78.93,3.947,27.49,46.74,2170,80.3,47.3,38.2,27.1,4.29,-1.68,2.36,1.65,0.54,-0.24,0.82,0.79,4.7,0.3,1,0.0567,1284368,1.63,42.07,4.4071,0,0,1284368,0,95.7,128.44,1435,60.4,-0.131,0.23,0.767,1.98,8.97,-9.29,78.93,27.49,3.929,3.96,31,3.959,3.929,3.952,3.956,3.945,3.948,3.96,3.936,3.949,3.952,3.941,3.951,3.941,3.945,3.948,3.95,3.939,3.949,3.946,3.936,27.3,26.7,,,,
7636,30.44,37742,78.98,3.949,27.03,45.95,2135,83.2,47.5,38.3,27.1,3.78,-1.61,2.08,1.45,0.51,-0.25,0.82,0.79,4.2,0.3,1,0.0573,1284375,-0.42,41.36,4.4563,0,0,1284375,0,95.7,128.44,1435,61.1,-0.532,0.462,0.809,13.88,16.08,-11.91,78.98,27.03,3.932,3.965,34,3.959,3.94,3.938,3.959,3.947,3.953,3.96,3.962,3.961,3.933,3.945,3.96,3.959,3.936,3.937,3.94,3.935,3.944,3.959,3.949,27.0,26.3,,,,
7719,31.73,39346,78.71,3.936,29.46,50.08,2319,87.5,47.7,38.4,27.1,3.69,-1.54,2.03,1.42,0.48,-0.26,0.82,0.79,4.1,0.3,1,0.058,1284383,-1.82,45.07,4.5097,0,0,1284383,0,95.7,128.44,1435,61.8,-0.212,0.13,0.871,23.42,21.44,-13.79,78.71,29.46,3.92,3.952,32,3.928,3.932,3.931,3.932,3.92,3.926,3.938,3.922,3.926,3.943,3.929,3.93,3.928,3.947,3.923,3.94,3.947,3.926,3.933,3.945,27.4,26.9,,,,
7802,30.44,37741,78.44,3.922,31.87,54.18,2500,83.7,47.9,38.5,27.1,2.41,-1.46,1.32,0.93,0.45,-0.28,0.82,0.79,2.6,0.3,1,0.0587,1284390,-0.24,48.76,4.5674,0,0,1284390,0,95.6,128.44,1435,62.4,-0.306,0.362,0.948,28.99,24.46,-14.82,78.44,31.87,3.906,3.939,33,3.937,3.913,3.938,3.93,3.919,3.928,3.917,3.909,3.931,3.919,3.924,3.923,3.936,3.931,3.907,3.926,3.922,3.921,3.934,3.92,27.1,27.9,,,,
7885,30.59,37930,78.04,3.902,35.46,60.28,2767,85.5,48.1,38.6,27.1,1.98,-1.38,1.09,0.76,0.41,-0.29,0.82,0.79,2.2,0.3,1,0.0595,1284397,0.07,54.25,4.6312,0,0,1284397,0,95.6,128.44,1435,63.1,-0.457,0.011,1.031,29.64,24.81,-14.94,78.04,35.46,3.885,3.921,37,3.913,3.889,3.893,3.888,3.915,3.888,3.888,3.912,3.905,3.887,3.91,3.911,3.902,3.887,3.91,3.9,3.906,3.921,3.915,3.917,26.4,26.8,,,,
7968,29.46,36529,78.46,3.923,31.72,53.93,2489,85.2,48.3,38.7,27.1,0.65,-1.3,0.35,0.25,0.37,-0.3,0.82,0.79,0.7,0.3,1,0.0603,1284404,0.26,48.53,4.6886,0,0,1284404,0,95.6,128.44,1435,63.7,-0.524,0.287,1.11,25.26,22.44,-14.13,78.46,31.72,3.906,3.938,32,3.908,3.916,3.934,3.932,3.933,3.914,3.912,3.908,3.923,3.918,3.921,3.922,3.925,3.918,3.932,3.912,3.935,3.924,3.908,3.916,27.2,26.9,,,,
8051,30.26,37518,77.47,3.873,40.65,69.11,3149,85.0,48.5,38.8,27.1,0.33,-1.21,0.18,0.13,0.32,-0.31,0.82,0.79,0.4,0.3,1,0.0612,1284410,-1.62,62.2,4.7612,0,0,1284410,0,95.6,128.44,1434,64.4,-0.151,0.123,1.177,16.58,17.63,-12.46,77.47,40.65,3.852,3.889,37,3.884,3.854,3.868,3.875,3.854,3.884,3.855,3.874,3.859,3.886,3.873,3.881,3.87,3.877,3.877,3.863,3.86,3.883,3.857,3.886,26.5,26.3,,,,
8134,31.4,38931,77.3,3.865,42.15,71.66,3258,91.1,48.7,38.9,27.1,-0.95,-1.11,-0.52,-0.36,0.28,-0.32,0.82,0.79,0,0.3,1,0.0622,1284418,0.91,64.49,4.8363,0,0,1284418,0,95.6,128.44,1434,65.1,-0.023,0.1,1.225,5.1,10.89,-10.01,77.3,42.15,3.852,3.883,31,3.854,3.878,3.862,3.86,3.87,3.862,3.87,3.857,3.881,3.862,3.878,3.857,3.877,3.883,3.865,3.853,3.864,3.872,3.859,3.869,26.3,27.1,,,,
8217,30.58,37919,77.35,3.867,41.73,70.95,3228,88.1,49.0,39.0,27.1,-1.77,-1.01,-0.98,-0.68,0.23,-0.33,0.82,0.79,0,0.3,1,0.0631,1284425,-1.8,63.85,4.9107,0,0,1284425,0,95.6,128.44,1434,65.7,0.069,0.162,1.248,-7.26,2.96,-6.95,77.35,41.73,3.85,3.881,31,3.861,3.873,3.865,3.879,3.853,3.865,3.877,3.868,3.867,3.853,3.854,3.858,3.878,3.876,3.857,3.878,3.851,3.868,3.88,3.861,28.0,27.5,,,,
8300,30.38,37673,76.87,3.843,46.05,78.28,3539,86.8,49.2,39.1,27.1,-2.28,-0.91,-1.25,-0.88,0.17,-0.34,0.82,0.79,0,0.3,1,0.0642,1284432,1.52,70.45,4.9923,0,0,1284432,0,95.6,128.44,1434,66.4,0.08,-0.178,1.244,-18.38,-5.29,-3.46,76.87,46.05,3.826,3.854,29,3.842,3.848,3.843,3.839,3.827,3.84,3.829,3.844,3.83,3.842,3.836,3.837,3.845,3.83,3.831,3.853,3.835,3.85,3.851,3.84,26.4,26.3,,,,
8383,29.9,37071,76.29,3.815,51.2,87.05,3907,85.7,49.4,39.2,27.2,-2.4,-0.81,-1.32,-0.92,0.12,-0.35,0.82,0.79,0,0.3,1,0.0654,1284439,-1.66,78.34,5.0824,0,0,1284439,0,95.6,128.44,1434,67.1,-0.195,-0.139,1.214,-26.38,-12.97,0.24,76.29,51.2,3.799,3.827,28,3.81,3.805,3.803,3.806,3.823,3.813,3.824,3.799,3.825,3.813,3.821,3.815,3.818,3.805,3.82,3.803,3.806,3.8,3.81,3.814,26.7,27.9,,,,
8466,31.04,38485,75.73,3.786,56.3,95.71,4263,87.4,49.6,39.3,27.2,-2.45,-0.7,-1.35,-0.94,0.07,-0.35,0.82,0.79,0,0.3,1,0.0667,1284446,1.99,86.14,5.1807,0,0,1284446,0,95.6,128.44,1434,67.7,-0.158,-0.305,1.16,-29.9,-19.23,3.93,75.73,56.3,3.765,3.797,32,3.785,3.787,3.791,3.776,3.791,3.779,3.794,3.765,3.795,3.778,3.778,3.767,3.772,3.788,3.786,3.769,3.776,3.769,3.771,3.772,26.8,28.1,,,,
8549,31.58,39159,75.45,3.773,58.76,99.9,4434,89.4,49.9,39.4,27.2,-2.43,-0.59,-1.34,-0.94,0.01,-0.36,0.82,0.79,0,0.3,1,0.068,1284453,0.13,89.91,5.2829,0,0,1284453,0,95.6,128.45,1434,68.4,0.348,-0.19,1.088,-28.35,-23.38,7.38,75.45,58.76,3.754,3.793,38,3.785,3.758,3.782,3.768,3.761,3.791,3.78,3.783,3.76,3.786,3.79,3.789,3.783,3.786,3.785,3.777,3.771,3.786,3.785,3.788,26.8,28.1,,,,
8632,31.98,39658,74.68,3.734,65.68,111.65,4905,88.5,50.2,39.5,27.2,-3.3,-0.48,-1.81,-1.27,-0.04,-0.37,0.82,0.79,0,0.3,1,0.0696,1284460,1.25,100.49,5.396,0,0,1284460,0,95.6,128.45,1434,69.1,0.48,-0.382,1.007,-21.98,-24.99,10.37,74.68,65.68,3.718,3.747,29,3.732,3.744,3.738,3.739,3.729,3.741,3.741,3.738,3.745,3.742,3.73,3.72,3.737,3.742,3.728,3.735,3.742,3.741,3.718,3.732,26.2,26.4,,,,
8715,30.75,38128,75.21,3.761,60.91,103.54,4581,86.6,50.3,39.6,27.2,-3.29,-0.36,-1.81,-1.27,-0.1,-0.38,0.82,0.79,0,0.3,1,0.071,1284468,-1.24,93.19,5.5016,0,0,1284468,0,95.6,128.45,1434,69.7,0.251,-0.156,0.926,-11.88,-23.87,12.72,75.21,60.91,3.746,3.772,26,3.753,3.764,3.757,3.763,3.767,3.749,3.764,3.747,3.767,3.751,3.753,3.771,3.755,3.752,3.769,3.762,3.769,3.756,3.759,3.771,27.2,28.2,,,,
8798,31.77,39393,74.88,3.744,63.91,108.65,4786,86.7,50.4,39.7,27.2,-3.14,-0.25,-1.73,-1.21,-0.15,-0.38,0.82,0.79,0,0.3,1,0.0724,1284475,-1.77,97.79,5.612,0,0,1284475,0,95.6,128.45,1434,70.4,0.648,-0.318,0.852,0.23,-20.13,14.29,74.88,63.91,3.729,3.758,29,3.732,3.745,3.754,3.744,3.74,3.756,3.755,3.749,3.732,3.747,3.742,3.757,3.74,3.748,3.748,3.74,3.744,3.749,3.756,3.744,26.9,28.1,,,,
8881,31.81,39443,74.81,3.74,64.55,109.73,4829,88.0,50.6,39.8,27.2,-2.13,-0.13,-1.17,-0.82,-0.2,-0.39,0.82,0.79,0,0.3,1,0.0739,1284482,0.76,98.76,5.7233,0,0,1284482,0,95.6,128.45,1433,71.0,0.634,-0.202,0.794,12.31,-14.2,14.97,74.81,64.55,3.728,3.754,26,3.732,3.753,3.751,3.732,3.744,3.743,3.729,3.738,3.748,3.745,3.735,3.748,3.736,3.742,3.739,3.754,3.745,3.749,3.746,3.738,28.1,27.6,,,,
8964,30.5,37822,75.03,3.752,62.53,106.3,4692,81.6,50.8,39.9,27.2,-1.63,-0.02,-0.9,-0.63,-0.25,-0.39,0.82,0.79,0,0.3,1,0.0754,1284489,-0.2,95.67,5.8315,0,0,1284489,0,95.6,128.45,1433,71.7,0.301,-0.418,0.759,22.29,-6.72,14.73,75.03,62.53,3.731,3.764,33,3.755,3.736,3.741,3.733,3.741,3.743,3.763,3.762,3.737,3.741,3.762,3.737,3.741,3.745,3.734,3.739,3.744,3.743,3.762,3.74,26.6,28.0,,,,
9047,31.87,39525,74.73,3.736,65.3,111.0,4879,86.0,51.0,40.0,27.2,-1.85,0.1,-1.02,-0.71,-0.3,-0.39,0.82,0.79,0,0.3,1,0.0769,1284497,-0.77,99.9,5.944,0,0,1284497,0,95.6,128.45,1433,72.4,0.517,-0.255,0.75,28.5,1.49,13.59,74.73,65.3,3.718,3.755,38,3.728,3.731,3.752,3.738,3.728,3.741,3.727,3.747,3.719,3.749,3.739,3.731,3.753,3.728,3.727,3.72,3.738,3.746,3.743,3.733,27.8,26.4,,,,
9130,31.44,38989,75.11,3.756,61.79,105.05,4642,85.1,51.2,40.1,27.2,-0.45,0.22,-0.25,-0.17,-0.35,-0.4,0.82,0.79,0,0.3,1,0.0783,1284504,-1.4,94.55,6.051,0,0,1284504,0,95.5,128.45,1433,73.0,0.246,-0.025,0.769,29.86,9.54,11.6,75.11,61.79,3.74,3.77,30,3.765,3.751,3.746,3.767,3.756,3.756,3.76,3.767,3.744,3.75,3.742,3.753,3.755,3.766,3.76,3.758,3.752,3.758,3.749,3.766,27.8,27.9,,,,
9213,31.54,39104,75.47,3.774,58.58,99.59,4421,83.4,51.4,40.2,27.2,0.42,0.33,0.23,0.16,-0.39,-0.4,0.82,0.79,0.5,0.3,1,0.0796,1284511,-0.9,89.63,6.1529,0,0,1284511,0,95.5,128.45,1433,73.7,0.383,-0.023,0.813,26.15,16.55,8.9,75.47,58.58,3.753,3.785,32,3.776,3.776,3.773,3.762,3.755,3.772,3.779,3.762,3.76,3.76,3.756,3.775,3.784,3.779,3.764,3.775,3.755,3.78,3.763,3.753,27.5,26.5,,,,
9296,30.09,37317,75.93,3.797,54.44,92.55,4134,77.3,51.7,40.3,27.2,0.17,0.44,0.1,0.07,-0.43,-0.4,0.82,0.79,0.2,0.3,1,0.0809,1284518,1.98,83.3,6.2482,0,0,1284518,0,95.5,128.45,1433,74.4,0.347,-0.251,0.877,18.01,21.76,5.65,75.93,54.44,3.778,3.811,32,3.789,3.797,3.785,3.804,3.785,3.805,3.804,3.796,3.779,3.803,3.779,3.795,3.792,3.78,3.799,3.802,3.797,3.791,3.795,3.797,26.7,28.0,,,,
9379,31.91,39569,76.2,3.81,51.97,88.35,3960,82.9,51.9,40.4,27.2,1.03,0.56,0.57,0.4,-0.47,-0.4,0.82,0.79,1.1,0.3,1,0.0821,1284525,-1.18,79.52,6.3395,0,0,1284525,0,95.5,128.45,1433,75.0,0.041,-0.181,0.954,6.81,24.58,2.05,76.2,51.97,3.791,3.829,37,3.808,3.804,3.798,3.806,3.802,3.799,3.819,3.811,3.808,3.799,3.818,3.799,3.801,3.812,3.818,3.828,3.819,3.827,3.826,3.818,27.7,26.4,,,,
9462,30.04,37249,76.46,3.823,49.63,84.37,3795,76.6,52.1,40.5,27.2,2.09,0.67,1.15,0.8,-0.5,-0.4,0.82,0.79,2.3,0.3,1,0.0832,1284532,-1.92,75.94,6.427,0,0,1284532,0,95.5,128.45,1433,75.7,-0.131,-0.107,1.037,-5.55,24.72,-1.67,76.46,49.63,3.801,3.837,36,3.803,3.808,3.814,3.833,3.83,3.817,3.805,3.805,3.807,3.829,3.818,3.837,3.834,3.83,3.818,3.831,3.806,3.805,3.821,3.819,26.7,26.7,,,,
9545,32.22,39949,76.28,3.814,51.29,87.19,3912,80.6,52.3,40.5,27.3,3.11,0.78,1.71,1.2,-0.53,-0.4,0.82,0.79,3.4,0.3,1,0.0844,1284540,0.36,78.47,6.5172,0,0,1284540,0,95.5,128.45,1433,76.4,-0.002,0.042,1.116,-16.97,22.16,-5.29,76.28,51.29,3.794,3.826,32,3.794,3.8,3.812,3.806,3.794,3.82,3.819,3.808,3.795,3.822,3.811,3.796,3.804,3.814,3.822,3.809,3.814,3.8,3.801,3.823,27.0,26.5,,,,
9628,30.37,37653,77.44,3.872,40.87,69.48,3165,72.8,52.5,40.6,27.3,4.14,0.88,2.28,1.59,-0.55,-0.4,0.82,0.79,4.6,0.3,1,0.0854,1284547,1.9,62.53,6.5902,0,0,1284547,0,95.5,128.45,1433,77.0,-0.105,0.122,1.182,-25.5,17.19,-8.59,77.44,40.87,3.853,3.882,30,3.867,3.865,3.873,3.874,3.86,3.872,3.873,3.867,3.857,3.88,3.871,3.854,3.86,3.882,3.859,3.864,3.876,3.877,3.872,3.875,26.3,26.4,,,,
9711,32.02,39699,77.96,3.898,36.19,61.52,2821,75.6,52.6,40.7,27.3,5.23,0.98,2.87,2.01,-0.57,-0.4,0.82,0.79,5.7,0.3,1,0.0862,1284554,1.2,55.37,6.6552,0,0,1284554,0,95.5,128.46,1433,77.7,-0.471,0.266,1.228,-29.71,10.33,-11.35,77.96,36.19,3.879,3.919,39,3.89,3.886,3.88,3.909,3.884,3.918,3.907,3.887,3.911,3.886,3.9,3.884,3.911,3.915,3.916,3.88,3.913,3.901,3.912,3.899,27.5,27.4,,,,
9794,30.3,37573,78.07,3.904,35.15,59.76,2744,70.5,52.6,40.8,27.3,5.24,1.08,2.88,2.02,-0.59,-0.39,0.82,0.79,5.8,0.3,1,0.087,1284561,-1.7,53.78,6.7185,0,0,1284561,0,95.5,128.46,1432,78.4,-0.653,0.337,1.249,-28.87,2.34,-13.42,78.07,35.15,3.883,3.923,40,3.902,3.888,3.909,3.892,3.9,3.888,3.922,3.905,3.897,3.887,3.913,3.917,3.917,3.887,3.898,3.895,3.914,3.889,3.908,3.922,27.8,26.3,,,,
9877,30.41,37712,78.31,3.915,33.02,56.13,2586,72.8,52.8,40.9,27.3,5.88,1.18,3.23,2.26,-0.59,-0.39,0.82,0.79,6.5,0.3,1,0.0878,1284568,1.05,50.52,6.7781,0,0,1284568,0,95.5,128.46,1432,79.0,-0.446,0.316,1.243,-23.13,-5.9,-14.66,78.31,33.02,3.894,3.934,40,3.926,3.931,3.928,3.923,3.896,3.921,3.928,3.911,3.929,3.901,3.932,3.912,3.923,3.904,3.906,3.908,3.907,3.898,3.912,3.933,27.6,28.1,,,,
9960,32.17,39895,78.14,3.907,34.53,58.7,2698,78.1,52.8,41.0,27.3,6.09,1.27,3.35,2.34,-0.6,-0.39,0.82,0.79,6.7,0.3,1,0.0886,1284576,-1.64,52.83,6.8403,0,0,1284576,0,95.5,128.46,1432,79.7,-0.452,0.1,1.21,-13.47,-13.49,-14.99,78.14,34.53,3.886,3.928,42,3.9,3.918,3.919,3.923,3.919,3.908,3.891,3.921,3.899,3.912,3.902,3.909,3.927,3.893,3.908,3.913,3.909,3.925,3.903,3.924,27.6,28.2,,,,
10043,30.7,38067,78.42,3.921,32.03,54.46,2512,71.1,52.9,41.1,27.3,6.44,1.36,3.54,2.48,-0.6,-0.38,0.82,0.79,7.1,0.3,1,0.0893,1284583,-0.03,49.01,6.8982,0,0,1284583,0,95.5,128.46,1432,80.3,-0.255,0.496,1.155,-1.51,-19.62,-14.4,78.42,32.03,3.905,3.939,35,3.928,3.93,3.931,3.913,3.913,3.905,3.928,3.912,3.913,3.938,3.927,3.925,3.927,3.925,3.929,3.915,3.907,3.907,3.905,3.917,26.5,26.5,,,,
10126,32.54,40351,78.9,3.945,27.68,47.06,2184,77.4,53.0,41.2,27.3,6.54,1.44,3.6,2.52,-0.59,-0.38,0.82,0.79,7.2,0.3,1,0.0899,1284590,1.93,42.35,6.9486,0,0,1284590,0,95.5,128.46,1432,81.0,-0.584,0.216,1.083,10.69,-23.6,-12.92,78.9,27.68,3.926,3.96,34,3.951,3.929,3.958,3.938,3.955,3.927,3.955,3.934,3.955,3.954,3.949,3.936,3.926,3.933,3.957,3.932,3.949,3.946,3.949,3.932,26.6,26.5,,,,
10209,31.16,38634,78.89,3.944,27.81,47.27,2193,73.6,53.1,41.2,27.3,6.48,1.52,3.56,2.49,-0.58,-0.37,0.82,0.79,7.1,0.3,1,0.0906,1284597,1.35,42.54,6.9992,0,0,1284597,0,95.5,128.46,1432,81.7,-0.575,0.419,1.001,21.09,-25.0,-10.64,78.89,27.81,3.923,3.959,36,3.949,3.928,3.951,3.932,3.936,3.942,3.927,3.932,3.951,3.933,3.936,3.95,3.931,3.93,3.931,3.937,3.936,3.946,3.94,3.954,26.4,27.6,,,,
10292,30.82,38222,79.06,3.953,26.21,44.55,2072,70.4,53.1,41.3,27.3,6.89,1.59,3.79,2.65,-0.57,-0.36,0.82,0.79,7.6,0.3,1,0.0912,1284604,-1.67,40.1,7.0469,0,0,1284604,0,95.5,128.46,1432,82.3,-0.079,0.086,0.92,27.9,-23.67,-7.71,79.06,26.21,3.936,3.965,29,3.943,3.949,3.94,3.938,3.947,3.95,3.963,3.952,3.938,3.943,3.958,3.953,3.962,3.964,3.961,3.94,3.964,3.952,3.943,3.941,28.0,26.7,,,,
10375,30.92,38341,78.95,3.947,27.24,46.31,2151,74.6,53.3,41.4,27.3,6.22,1.66,3.42,2.39,-0.55,-0.36,0.82,0.79,6.8,0.3,1,0.0918,1284612,-1.27,41.68,7.0965,0,0,1284612,0,95.4,128.46,1432,83.0,-0.143,0.135,0.847,29.98,-19.76,-4.3,78.95,27.24,3.929,3.962,33,3.933,3.961,3.945,3.935,3.929,3.95,3.946,3.93,3.944,3.953,3.947,3.937,3.945,3.949,3.95,3.934,3.955,3.96,3.953,3.957,27.0,28.1,,,,
10458,30.85,38254,78.37,3.919,32.43,55.14,2542,73.6,53.3,41.5,27.3,6.06,1.72,3.33,2.33,-0.52,-0.35,0.82,0.79,6.7,0.3,1,0.0926,1284619,-0.63,49.63,7.1551,0,0,1284619,0,95.4,128.46,1432,83.7,-0.295,0.135,0.791,26.96,-13.69,-0.63,78.37,32.43,3.905,3.938,33,3.924,3.936,3.918,3.927,3.905,3.936,3.912,3.92,3.922,3.936,3.921,3.937,3.925,3.912,3.932,3.911,3.938,3.92,3.912,3.936,26.9,27.1,,,,
10541,31.93,39596,78.52,3.926,31.1,52.87,2442,74.7,53.4,41.6,27.3,6.34,1.78,3.49,2.44,-0.5,-0.34,0.82,0.79,7.0,0.3,1,0.0933,1284626,-0.37,47.58,7.2114,0,0,1284626,0,95.4,128.46,1432,84.3,-0.218,0.146,0.758,19.37,-6.12,3.08,78.52,31.1,3.909,3.943,33,3.933,3.914,3.917,3.913,3.941,3.914,3.914,3.927,3.929,3.939,3.911,3.917,3.915,3.929,3.924,3.923,3.939,3.931,3.938,3.941,26.8,28.2,,,,
10624,30.47,37786,78.75,3.937,29.04,49.36,2287,75.2,53.4,41.6,27.3,5.13,1.83,2.82,1.98,-0.46,-0.33,0.82,0.79,5.6,0.3,1,0.0939,1284633,-1.71,44.43,7.2642,0,0,1284633,0,95.4,128.46,1431,85.0,0.05,0.23,0.751,8.49,2.11,6.61,78.75,29.04,3.921,3.954,33,3.949,3.948,3.943,3.938,3.925,3.929,3.943,3.94,3.947,3.95,3.953,3.928,3.924,3.95,3.94,3.927,3.944,3.93,3.929,3.933,27.3,27.6,,,,
10707,32.15,39864,77.81,3.89,37.52,63.78,2919,79.3,53.6,41.7,27.3,5.09,1.87,2.8,1.96,-0.43,-0.32,0.82,0.79,5.6,0.3,1,0.0948,1284640,-0.32,57.4,7.3315,0,0,1284640,0,95.4,128.46,1431,85.7,-0.035,-0.029,0.771,-3.83,10.11,9.72,77.81,37.52,3.871,3.908,37,3.878,3.907,3.9,3.88,3.887,3.907,3.879,3.886,3.907,3.904,3.88,3.898,3.884,3.896,3.899,3.876,3.879,3.879,3.881,3.873,26.5,27.1,,,,
10790,30.58,37915,77.23,3.862,42.7,72.59,3298,75.9,53.7,41.8,27.3,3.83,1.91,2.1,1.47,-0.39,-0.31,0.82,0.79,4.2,0.3,1,0.0958,1284648,0.9,65.33,7.4075,0,0,1284648,0,95.4,128.46,1431,86.3,0.449,-0.106,0.817,-15.5,17.01,12.24,77.23,42.7,3.845,3.872,27,3.863,3.849,3.855,3.871,3.865,3.867,3.862,3.862,3.864,3.871,3.85,3.865,3.853,3.852,3.867,3.861,3.868,3.868,3.861,3.85,26.3,27.3,,,,
10873,31.06,38519,77.72,3.886,38.29,65.09,2976,76.2,53.8,41.9,27.3,3.45,1.94,1.9,1.33,-0.34,-0.3,0.82,0.79,3.8,0.3,1,0.0967,1284655,-1.25,58.58,7.4761,0,0,1284655,0,95.4,128.47,1431,87.0,0.076,-0.246,0.882,-24.54,22.05,14.0,77.72,38.29,3.867,3.908,41,3.868,3.872,3.905,3.907,3.873,3.881,3.888,3.88,3.884,3.886,3.877,3.869,3.87,3.874,3.871,3.892,3.895,3.878,3.899,3.897,27.0,27.3,,,,
10956,32.66,40497,77.04,3.852,44.37,75.43,3419,83.4,53.9,42.0,27.3,2.63,1.97,1.44,1.01,-0.3,-0.29,0.82,0.79,2.9,0.3,1,0.0977,1284662,-1.12,67.89,7.5549,0,0,1284662,0,95.4,128.47,1431,87.6,0.328,-0.103,0.961,-29.41,24.69,14.89,77.04,44.37,3.832,3.872,40,3.836,3.855,3.84,3.86,3.864,3.864,3.841,3.836,3.858,3.855,3.838,3.84,3.855,3.836,3.857,3.842,3.842,3.849,3.853,3.861,26.3,27.7,,,,
11039,31.15,38621,76.26,3.813,51.4,87.38,3920,80.9,54.0,42.0,27.3,2.05,1.98,1.13,0.79,-0.25,-0.28,0.82,0.79,2.3,0.3,1,0.0989,1284669,-0.55,78.64,7.6453,0,0,1284669,0,95.4,128.47,1431,88.3,0.219,-0.309,1.043,-29.3,24.62,14.87,76.26,51.4,3.799,3.825,26,3.805,3.819,3.82,3.817,3.824,3.82,3.807,3.807,3.818,3.8,3.815,3.801,3.8,3.812,3.803,3.823,3.822,3.811,3.804,3.802,27.3,27.3,,,,
11122,32.19,39910,75.66,3.783,56.83,96.62,4300,84.3,54.1,42.1,27.3,0.23,2.0,0.13,0.09,-0.2,-0.26,0.82,0.79,0.3,0.3,1,0.1002,1284677,1.08,86.96,7.7444,0,0,1284677,0,95.4,128.47,1431,89.0,0.304,-0.274,1.121,-24.2,21.87,13.93,75.66,56.83,3.764,3.796,31,3.774,3.779,3.787,3.788,3.776,3.778,3.793,3.794,3.784,3.768,3.779,3.784,3.773,3.765,3.795,3.793,3.768,3.779,3.784,3.774,26.4,27.8,,,,
11205,31.53,39102,75.81,3.791,55.42,94.22,4202,81.9,54.1,42.2,27.3,0.52,2.0,0.29,0.2,-0.14,-0.25,0.82,0.79,0.6,0.3,1,0.1015,1284684,0.86,84.8,7.8413,0,0,1284684,0,95.4,128.47,1431,89.6,0.054,-0.375,1.186,-15.0,16.73,12.14,75.81,55.42,3.777,3.802,25,3.779,3.781,3.79,3.798,3.782,3.782,3.796,3.788,3.786,3.78,3.783,3.801,3.78,3.784,3.796,3.799,3.8,3.789,3.801,3.792,26.9,27.2,,,,
11288,32.26,40007,75.62,3.781,57.19,97.22,4325,85.1,54.4,42.3,27.3,-1.23,2.0,-0.68,-0.47,-0.09,-0.24,0.82,0.79,0,0.3,1,0.1028,1284692,-0.5,87.5,7.941,0,0,1284692,0,95.4,128.47,1431,90.3,0.444,-0.364,1.23,-3.25,9.76,9.59,75.62,57.19,3.766,3.797,30,3.796,3.771,3.792,3.776,3.772,3.789,3.777,3.772,3.779,3.791,3.792,3.784,3.767,3.789,3.785,3.794,3.795,3.776,3.792,3.791,26.8,27.0,,,,
11371,31.37,38894,75.61,3.781,57.25,97.32,4329,84.8,54.5,42.4,27.3,-0.92,1.99,-0.51,-0.35,-0.03,-0.23,0.82,0.79,0,0.3,1,0.1041,1284699,0.61,87.59,8.0408,0,0,1284699,0,95.4,128.47,1431,91.0,0.118,-0.242,1.249,9.05,1.73,6.45,75.61,57.25,3.761,3.794,32,3.791,3.787,3.793,3.785,3.786,3.787,3.769,3.782,3.773,3.788,3.765,3.779,3.772,3.788,3.772,3.788,3.789,3.79,3.766,3.792,27.8,27.7,,,,
11454,30.65,38007,75.12,3.756,61.69,104.87,4634,85.8,54.6,42.4,27.3,-2.16,1.97,-1.19,-0.83,0.02,-0.21,0.82,0.79,0,0.3,1,0.1055,1284706,0.29,94.39,8.1477,0,0,1284706,0,95.4,128.47,1430,91.6,0.247,-0.168,1.241,19.81,-6.5,2.91,75.12,61.69,3.742,3.77,28,3.749,3.745,3.751,3.742,3.764,3.748,3.744,3.744,3.763,3.747,3.755,3.753,3.764,3.769,3.75,3.76,3.767,3.755,3.767,3.762,26.9,28.1,,,,
11537,30.81,38199,74.71,3.736,65.34,111.07,4881,86.0,54.8,42.5,27.3,-2.44,1.95,-1.34,-0.94,0.07,-0.2,0.82,0.79,0,0.3,1,0.107,1284713,-0.48,99.96,8.2602,0,0,1284713,0,95.4,128.47,1430,92.3,-0.072,-0.101,1.207,27.21,-14.01,-0.8,74.71,65.34,3.722,3.75,28,3.732,3.749,3.741,3.725,3.748,3.723,3.738,3.734,3.742,3.734,3.724,3.736,3.745,3.744,3.732,3.728,3.743,3.744,3.728,3.747,28.3,27.2,,,,
11620,32.27,40015,75.08,3.754,61.99,105.38,4654,91.9,54.9,42.6,27.3,-2.95,1.92,-1.62,-1.14,0.13,-0.18,0.82,0.79,0,0.3,1,0.1085,1284720,0.52,94.84,8.3675,0,0,1284720,0,95.4,128.47,1430,93.0,0.02,-0.339,1.15,29.99,-19.99,-4.47,75.08,61.99,3.737,3.772,35,3.742,3.771,3.772,3.757,3.765,3.744,3.769,3.756,3.764,3.768,3.75,3.77,3.744,3.738,3.755,3.769,3.769,3.771,3.755,3.77,27.5,26.6,,,,
11703,32.51,40312,74.69,3.735,65.52,111.39,4894,91.1,55.0,42.6,27.3,-3.21,1.89,-1.76,-1.24,0.18,-0.17,0.82,0.79,0,0.3,1,0.11,1284728,-1.72,100.25,8.4803,0,0,1284728,0,95.3,128.47,1430,93.6,-0.257,-0.161,1.077,27.68,-23.79,-7.86,74.69,65.52,3.722,3.745,23,3.729,3.738,3.739,3.727,3.727,3.733,3.726,3.735,3.742,3.726,3.735,3.738,3.739,3.738,3.738,3.728,3.741,3.743,3.723,3.743,27.2,26.5,,,,
11786,32.51,40311,75.27,3.763,60.34,102.58,4542,92.7,55.2,42.7,27.3,-2.83,1.85,-1.56,-1.09,0.23,-0.15,0.82,0.79,0,0.3,1,0.1114,1284735,0.81,92.32,8.5851,0,0,1284735,0,95.3,128.47,1430,94.3,0.011,-0.177,0.995,20.67,-24.99,-10.77,75.27,60.34,3.749,3.776,27,3.753,3.76,3.765,3.757,3.753,3.755,3.751,3.754,3.757,3.762,3.754,3.762,3.761,3.775,3.762,3.774,3.762,3.754,3.765,3.753,26.7,26.5,,,,
11869,32.93,40835,75.17,3.759,61.2,104.03,4600,93.0,55.3,42.8,27.4,-3.1,1.8,-1.71,-1.19,0.28,-0.14,0.82,0.79,0,0.3,1,0.1128,1284743,-0.39,93.63,8.6911,0,0,1284743,0,95.3,128.47,1430,95.0,-0.232,-0.095,0.914,10.15,-23.47,-13.01,75.17,61.2,3.738,3.775,38,3.738,3.77,3.765,3.751,3.762,3.772,3.753,3.754,3.749,3.759,3.763,3.765,3.774,3.743,3.752,3.77,3.768,3.76,3.763,3.751,28.2,27.5,,,,
11952,31.06,38517,75.16,3.758,61.28,104.18,4606,87.2,55.5,42.9,27.4,-3.28,1.74,-1.8,-1.26,0.33,-0.12,0.82,0.79,0,0.3,1,0.1142,1284750,-1.76,93.76,8.7973,0,0,1284750,0,95.3,128.48,1430,95.6,-0.491,0.002,0.842,-2.09,-19.37,-14.45,75.16,61.28,3.742,3.779,36,3.755,3.762,3.776,3.766,3.76,3.755,3.756,3.765,3.771,3.752,3.756,3.757,3.756,3.776,3.762,3.752,3.755,3.772,3.748,3.768,26.4,26.7,,,,
12035,32.57,40387,75.89,3.794,54.72,93.03,4153,91.3,55.6,42.9,27.4,-2.65,1.68,-1.46,-1.02,0.37,-0.11,0.82,0.79,0,0.3,1,0.1155,1284758,0.44,83.73,8.8931,0,0,1284758,0,95.3,128.48,1430,96.3,-0.26,0.16,0.787,-13.98,-13.17,-15.0,75.89,54.72,3.773,3.811,38,3.808,3.776,3.808,3.79,3.78,3.802,3.806,3.788,3.777,3.806,3.802,3.796,3.81,3.774,3.775,3.778,3.774,3.8,3.797,3.777,26.7,26.7,,,,
12118,32.26,40007,76.14,3.807,52.47,89.2,3995,93.6,55.8,43.0,27.4,-1.99,1.62,-1.09,-0.76,0.41,-0.09,0.82,0.79,0,0.3,1,0.1167,1284765,-1.43,80.28,8.9852,0,0,1284765,0,95.3,128.48,1430,96.9,-0.455,0.032,0.756,-23.49,-5.52,-14.62,76.14,52.47,3.785,3.829,44,3.816,3.793,3.793,3.792,3.801,3.817,3.788,3.808,3.815,3.787,3.804,3.82,3.81,3.805,3.824,3.811,3.8,3.803,3.826,3.823,28.2,27.5,,,,
12201,31.08,38541,76.36,3.818,50.52,85.88,3857,87.9,55.9,43.1,27.4,-0.97,1.55,-0.54,-0.38,0.45,-0.07,0.82,0.79,0,0.3,1,0.1178,1284772,1.43,77.29,9.0741,0,0,1284772,0,95.3,128.48,1430,97.6,-0.184,0.189,2.551,-29.02,2.73,-13.34,76.36,50.52,3.798,3.833,35,3.821,3.818,3.823,3.812,3.831,3.831,3.83,3.819,3.809,3.811,3.807,3.829,3.826,3.825,3.827,3.832,3.822,3.809,3.824,3.807,27.6,26.7,,,,
12284,31.85,39489,76.38,3.819,50.27,85.46,3840,89.1,55.9,43.2,27.4,-0.16,1.47,-0.09,-0.06,0.49,-0.06,0.82,0.79,0,0.3,1,0.119,1284780,1.77,76.91,9.1626,0,0,1284780,0,95.3,128.48,1429,98.3,-0.146,0.088,0.774,-29.62,10.68,-11.24,76.38,50.27,3.801,3.84,39,3.824,3.818,3.837,3.805,3.831,3.805,3.812,3.806,3.835,3.818,3.829,3.811,3.83,3.826,3.805,3.821,3.829,3.81,3.827,3.812,27.1,28.2,,,,
12367,33.08,41018,76.92,3.846,45.42,77.21,3493,92.3,56.2,43.2,27.4,0.37,1.39,0.2,0.14,0.52,-0.04,0.82,0.79,0.4,0.3,1,0.12,1284787,0.92,69.49,9.2432,0,0,1284787,0,95.3,128.48,1429,98.9,-0.252,0.409,0.821,-25.19,17.46,-8.45,76.92,45.42,3.825,3.862,37,3.829,3.852,3.83,3.85,3.827,3.861,3.845,3.852,3.83,3.848,3.839,3.834,3.855,3.826,3.842,3.828,3.856,3.858,3.826,3.842,27.3,27.8,,,,
12450,31.52,39083,77.92,3.896,36.44,61.95,2840,89.6,56.2,43.3,27.4,1.22,1.3,0.67,0.47,0.54,-0.02,0.82,0.79,1.3,0.3,1,0.1209,1284794,1.85,55.76,9.3086,0,0,1284794,0,95.3,128.48,1429,99.6,-0.365,0.162,0.888,-16.49,22.34,-5.13,77.92,36.44,3.881,3.908,27,3.906,3.894,3.902,3.887,3.906,3.887,3.905,3.897,3.907,3.902,3.898,3.895,3.904,3.893,3.883,3.906,3.903,3.899,3.901,3.887,27.3,28.0,,,,
12533,32.92,40822,77.54,3.877,39.81,67.68,3087,89.3,56.4,43.4,27.4,1.55,1.21,0.85,0.6,0.56,-0.01,0.82,0.79,1.7,0.3,1,0.1218,1284802,0.74,60.91,9.3798,0,0,1284802,0,95.3,128.48,1429,100.3,-0.239,0.154,0.967,-4.98,24.78,-1.5,77.54,39.81,3.86,3.89,30,3.871,3.877,3.883,3.878,3.865,3.887,3.871,3.889,3.89,3.865,3.878,3.889,3.872,3.877,3.87,3.861,3.866,3.864,3.869,3.879,27.5,28.3,,,,
12616,31.58,39164,78.11,3.905,34.75,59.08,2715,88.1,56.5,43.4,27.4,2.93,1.12,1.61,1.13,0.58,0.01,0.82,0.79,3.2,0.3,1,0.1226,1284809,-0.34,53.17,9.4424,0,0,1284809,0,95.3,128.48,1429,100.9,0.161,0.242,1.049,7.37,24.51,2.23,78.11,34.75,3.89,3.927,37,3.899,3.926,3.893,3.891,3.911,3.898,3.909,3.895,3.921,3.915,3.915,3.924,3.927,3.915,3.916,3.89,3.892,3.906,3.926,3.902,27.5,26.4,,,,
12699,32.89,40783,77.97,3.898,36.0,61.2,2807,89.0,56.6,43.5,27.4,2.95,1.02,1.62,1.14,0.59,0.03,0.82,0.79,3.2,0.3,1,0.1234,1284817,0.21,55.08,9.5071,0,0,1284817,0,95.3,128.48,1429,101.6,-0.037,0.417,1.126,18.47,21.56,5.81,77.97,36.0,3.877,3.912,35,3.907,3.895,3.888,3.91,3.891,3.901,3.879,3.906,3.911,3.881,3.903,3.886,3.882,3.89,3.9,3.91,3.911,3.911,3.899,3.9,26.7,27.8,,,,
12782,31.59,39176,78.93,3.947,27.29,46.4,2154,85.8,56.6,43.6,27.4,3.68,0.92,2.02,1.42,0.6,0.04,0.82,0.79,4.0,0.3,1,0.1241,1284824,1.69,41.76,9.5568,0,0,1284824,0,95.3,128.48,1429,102.3,0.031,0.293,1.19,26.43,16.26,9.04,78.93,27.29,3.933,3.963,30,3.95,3.95,3.945,3.949,3.934,3.935,3.946,3.94,3.956,3.94,3.958,3.94,3.936,3.947,3.945,3.943,3.956,3.94,3.953,3.958,27.3,27.4,,,,
12865,32.19,39915,79.16,3.958,25.28,42.97,2001,83.4,56.7,43.7,27.4,4.61,0.81,2.54,1.77,0.6,0.06,0.82,0.79,5.1,0.3,1,0.1246,1284832,-1.33,38.67,9.6029,0,0,1284832,0,95.3,128.48,1429,102.9,0.066,0.28,1.233,29.91,9.19,11.71,79.16,25.28,3.943,3.974,31,3.972,3.95,3.948,3.952,3.953,3.971,3.965,3.956,3.948,3.944,3.947,3.969,3.963,3.948,3.962,3.945,3.959,3.953,3.946,3.966,27.8,27.4,,,,
